{
  "_meta": {
    "generated": "2026-03-29T12:57:28.767449",
    "radius_walk": 500,
    "radius_car": 1000
  },
  "Бурштин 1": {
    "peak": 36,
    "morning": 21,
    "evening": 30,
    "weekend": 32,
    "walk_radius": 500,
    "car_radius": 1000,
    "walk_places_count": 15,
    "car_places_count": 20,
    "heatmap_points": [
      {
        "lat": 49.26251120000001,
        "lon": 24.6351624,
        "name": "АБТ маркет супермаркет №1142",
        "rating": 4.3,
        "reviews": 1167,
        "type": "supermarket",
        "weight": 1.0,
        "in_walk_radius": true
      },
      {
        "lat": 49.25719649999999,
        "lon": 24.6317995,
        "name": "Atb",
        "rating": 5,
        "reviews": 1,
        "type": "supermarket",
        "weight": 0.347,
        "in_walk_radius": false
      },
      {
        "lat": 49.26586289999999,
        "lon": 24.637852,
        "name": "ОЧЕРЕТ",
        "rating": 4.6,
        "reviews": 236,
        "type": "restaurant",
        "weight": 1.0,
        "in_walk_radius": true
      },
      {
        "lat": 49.2628832,
        "lon": 24.6355025,
        "name": "Піцерія IQ Pizza",
        "rating": 4.8,
        "reviews": 136,
        "type": "restaurant",
        "weight": 1.0,
        "in_walk_radius": true
      },
      {
        "lat": 49.2628091,
        "lon": 24.6360499,
        "name": "Кафе-бар \"У Людмили\"",
        "rating": 4.2,
        "reviews": 68,
        "type": "restaurant",
        "weight": 1.0,
        "in_walk_radius": true
      },
      {
        "lat": 49.270446,
        "lon": 24.6241383,
        "name": "Кафе. Tir-parking (Каліфорнія)",
        "rating": 4.2,
        "reviews": 866,
        "type": "restaurant",
        "weight": 1.0,
        "in_walk_radius": false
      },
      {
        "lat": 49.2709898,
        "lon": 24.6241813,
        "name": "Бограч(кафе Эдельвейс)",
        "rating": 5,
        "reviews": 8,
        "type": "restaurant",
        "weight": 1.0,
        "in_walk_radius": false
      },
      {
        "lat": 49.257106,
        "lon": 24.6326891,
        "name": "Okko",
        "rating": 4.3,
        "reviews": 1397,
        "type": "cafe",
        "weight": 1.0,
        "in_walk_radius": false
      },
      {
        "lat": 49.26358210000001,
        "lon": 24.6360937,
        "name": "Skorpion",
        "rating": 4.2,
        "reviews": 95,
        "type": "cafe",
        "weight": 1.0,
        "in_walk_radius": true
      },
      {
        "lat": 49.263627,
        "lon": 24.630481,
        "name": "Vizyt, Kafe,",
        "rating": 4.5,
        "reviews": 2,
        "type": "cafe",
        "weight": 0.494,
        "in_walk_radius": false
      },
      {
        "lat": 49.257318,
        "lon": 24.6322798,
        "name": "Burshtyn Vulytsya Stepana Bandery",
        "rating": 0,
        "reviews": 0,
        "type": "transit_station",
        "weight": 0.1,
        "in_walk_radius": false
      },
      {
        "lat": 49.25711099999999,
        "lon": 24.632703,
        "name": "Burshtyn Gas Station Okko 38A Stepana",
        "rating": 0,
        "reviews": 0,
        "type": "transit_station",
        "weight": 0.1,
        "in_walk_radius": false
      },
      {
        "lat": 49.2605667,
        "lon": 24.62688,
        "name": "Burshtyn",
        "rating": 0,
        "reviews": 0,
        "type": "market",
        "weight": 0.1,
        "in_walk_radius": false
      },
      {
        "lat": 49.267146,
        "lon": 24.63183799999999,
        "name": "WOG",
        "rating": 4.3,
        "reviews": 239,
        "type": "market",
        "weight": 1.0,
        "in_walk_radius": true
      },
      {
        "lat": 49.2617874,
        "lon": 24.6327851,
        "name": "Kingdom Hall of Jehovah's Witnesses",
        "rating": 4.6,
        "reviews": 12,
        "type": "market",
        "weight": 1.0,
        "in_walk_radius": false
      },
      {
        "lat": 49.2646847,
        "lon": 24.6361354,
        "name": "Memorial Upa - Unikalʹna Symvolichna Mohyla",
        "rating": 0,
        "reviews": 0,
        "type": "park",
        "weight": 0.1,
        "in_walk_radius": true
      },
      {
        "lat": 49.2616999,
        "lon": 24.6355329,
        "name": "Burshtynsʹkyy Mizhshkilʹnyy Navchalʹno-Vyrobnychyy Kombinat",
        "rating": 0,
        "reviews": 0,
        "type": "school",
        "weight": 0.1,
        "in_walk_radius": true
      },
      {
        "lat": 49.2614655,
        "lon": 24.63558159999999,
        "name": "School №1",
        "rating": 0,
        "reviews": 0,
        "type": "school",
        "weight": 0.1,
        "in_walk_radius": false
      },
      {
        "lat": 49.260363,
        "lon": 24.6345757,
        "name": "Бурштинський дошкільний навчальний заклад №1 «Веселка»",
        "rating": 0,
        "reviews": 0,
        "type": "school",
        "weight": 0.1,
        "in_walk_radius": false
      },
      {
        "lat": 49.26251120000001,
        "lon": 24.63516229999999,
        "name": "Apteka Zdorova Rodyna",
        "rating": 3,
        "reviews": 1,
        "type": "pharmacy",
        "weight": 0.208,
        "in_walk_radius": true
      }
    ],
    "collected_at": "2026-03-29T12:57:36.260588"
  },
  "Бурштин ринок": {
    "peak": 36,
    "morning": 21,
    "evening": 30,
    "weekend": 32,
    "walk_radius": 500,
    "car_radius": 1000,
    "walk_places_count": 37,
    "car_places_count": 52,
    "heatmap_points": [
      {
        "lat": 49.2508752,
        "lon": 24.6327165,
        "name": "Магазин+майстерня",
        "rating": 0,
        "reviews": 0,
        "type": "shopping_mall",
        "weight": 0.1,
        "in_walk_radius": true
      },
      {
        "lat": 49.2511115,
        "lon": 24.6269586,
        "name": "Tts \"Kvadrat\"",
        "rating": 4,
        "reviews": 84,
        "type": "shopping_mall",
        "weight": 1.0,
        "in_walk_radius": false
      },
      {
        "lat": 49.2509379,
        "lon": 24.6317765,
        "name": "Епіцентр Food",
        "rating": 4.1,
        "reviews": 7,
        "type": "supermarket",
        "weight": 0.853,
        "in_walk_radius": true
      },
      {
        "lat": 49.2517315,
        "lon": 24.6281183,
        "name": "EUROSPAR",
        "rating": 3.6,
        "reviews": 20,
        "type": "supermarket",
        "weight": 1.0,
        "in_walk_radius": false
      },
      {
        "lat": 49.25173,
        "lon": 24.62797999999999,
        "name": "Аврора",
        "rating": 3.6,
        "reviews": 12,
        "type": "supermarket",
        "weight": 0.923,
        "in_walk_radius": false
      },
      {
        "lat": 49.25719649999999,
        "lon": 24.6317995,
        "name": "Atb",
        "rating": 5,
        "reviews": 1,
        "type": "supermarket",
        "weight": 0.347,
        "in_walk_radius": false
      },
      {
        "lat": 49.2513506,
        "lon": 24.6277281,
        "name": "Гіпермаркет \"Материк\"",
        "rating": 0,
        "reviews": 0,
        "type": "supermarket",
        "weight": 0.1,
        "in_walk_radius": false
      },
      {
        "lat": 49.25316429999999,
        "lon": 24.632319,
        "name": "Деруни & beer",
        "rating": 3.4,
        "reviews": 5,
        "type": "restaurant",
        "weight": 0.609,
        "in_walk_radius": true
      },
      {
        "lat": 49.25281349999999,
        "lon": 24.6289521,
        "name": "Boston pizza",
        "rating": 4.4,
        "reviews": 423,
        "type": "restaurant",
        "weight": 1.0,
        "in_walk_radius": false
      },
      {
        "lat": 49.2497633,
        "lon": 24.6309118,
        "name": "Піцерія Pulcinella",
        "rating": 5,
        "reviews": 2,
        "type": "restaurant",
        "weight": 0.549,
        "in_walk_radius": false
      },
      {
        "lat": 49.2513506,
        "lon": 24.6277281,
        "name": "PizzaUA",
        "rating": 0,
        "reviews": 0,
        "type": "restaurant",
        "weight": 0.1,
        "in_walk_radius": false
      },
      {
        "lat": 49.25179019999999,
        "lon": 24.62662959999999,
        "name": "Namysto",
        "rating": 4.3,
        "reviews": 12,
        "type": "restaurant",
        "weight": 1.0,
        "in_walk_radius": false
      },
      {
        "lat": 49.257106,
        "lon": 24.6326891,
        "name": "Okko",
        "rating": 4.3,
        "reviews": 1397,
        "type": "cafe",
        "weight": 1.0,
        "in_walk_radius": false
      },
      {
        "lat": 49.25065829999999,
        "lon": 24.63586129999999,
        "name": "Pan Kavych",
        "rating": 4.7,
        "reviews": 111,
        "type": "cafe",
        "weight": 1.0,
        "in_walk_radius": true
      },
      {
        "lat": 49.2509345,
        "lon": 24.6321582,
        "name": "I DO coffee",
        "rating": 5,
        "reviews": 12,
        "type": "cafe",
        "weight": 1.0,
        "in_walk_radius": true
      },
      {
        "lat": 49.25113,
        "lon": 24.6303935,
        "name": "Statfall",
        "rating": 0,
        "reviews": 0,
        "type": "cafe",
        "weight": 0.1,
        "in_walk_radius": false
      },
      {
        "lat": 49.2498006,
        "lon": 24.6307136,
        "name": "Khvygy-Mygy",
        "rating": 4.4,
        "reviews": 7,
        "type": "cafe",
        "weight": 0.915,
        "in_walk_radius": false
      },
      {
        "lat": 49.25321,
        "lon": 24.63434,
        "name": "Burshtyn Mitskevycha",
        "rating": 0,
        "reviews": 0,
        "type": "transit_station",
        "weight": 0.1,
        "in_walk_radius": true
      },
      {
        "lat": 49.25371699999999,
        "lon": 24.634044,
        "name": "Burshtyn 43 Mitskevitcha Street",
        "rating": 3,
        "reviews": 1,
        "type": "transit_station",
        "weight": 0.208,
        "in_walk_radius": true
      },
      {
        "lat": 49.25412,
        "lon": 24.63436,
        "name": "Burshtyn Mitskevycha Street",
        "rating": 0,
        "reviews": 0,
        "type": "transit_station",
        "weight": 0.1,
        "in_walk_radius": true
      },
      {
        "lat": 49.24957399999999,
        "lon": 24.634456,
        "name": "Burshtyn Soccer Ball",
        "rating": 5,
        "reviews": 1,
        "type": "transit_station",
        "weight": 0.347,
        "in_walk_radius": true
      },
      {
        "lat": 49.25711099999999,
        "lon": 24.632703,
        "name": "Burshtyn Gas Station Okko 38A Stepana",
        "rating": 0,
        "reviews": 0,
        "type": "transit_station",
        "weight": 0.1,
        "in_walk_radius": false
      },
      {
        "lat": 49.2605667,
        "lon": 24.62688,
        "name": "Burshtyn",
        "rating": 0,
        "reviews": 0,
        "type": "market",
        "weight": 0.1,
        "in_walk_radius": false
      },
      {
        "lat": 49.25196519999999,
        "lon": 24.6334752,
        "name": "Burshtynsʹka Misʹka Rada",
        "rating": 3.7,
        "reviews": 63,
        "type": "market",
        "weight": 1.0,
        "in_walk_radius": true
      },
      {
        "lat": 49.247901,
        "lon": 24.633204,
        "name": "faberlic Фаберлік Фаберлик faberlik Farmasi",
        "rating": 0,
        "reviews": 0,
        "type": "market",
        "weight": 0.1,
        "in_walk_radius": false
      },
      {
        "lat": 49.25094780000001,
        "lon": 24.6328081,
        "name": "Tov Halytsʹki Telekomunikatsiyi",
        "rating": 3.9,
        "reviews": 10,
        "type": "market",
        "weight": 0.935,
        "in_walk_radius": true
      },
      {
        "lat": 49.251698,
        "lon": 24.635282,
        "name": "Pool \"Dolphin\"",
        "rating": 4.4,
        "reviews": 30,
        "type": "gym",
        "weight": 1.0,
        "in_walk_radius": true
      },
      {
        "lat": 49.2508752,
        "lon": 24.6327165,
        "name": "Фітнес-студія «VULCHYN FIT»",
        "rating": 0,
        "reviews": 0,
        "type": "gym",
        "weight": 0.1,
        "in_walk_radius": true
      },
      {
        "lat": 49.2508752,
        "lon": 24.6327165,
        "name": "Фітнес студія \"Vulchyn Fit\"",
        "rating": 0,
        "reviews": 0,
        "type": "gym",
        "weight": 0.1,
        "in_walk_radius": true
      },
      {
        "lat": 49.2504027,
        "lon": 24.6350103,
        "name": "Боксерський клуб \"Авангард Плюс\"",
        "rating": 5,
        "reviews": 1,
        "type": "gym",
        "weight": 0.347,
        "in_walk_radius": true
      },
      {
        "lat": 49.2495747,
        "lon": 24.637134,
        "name": "\"Energetic\" - a stadium, sports complex",
        "rating": 5,
        "reviews": 4,
        "type": "gym",
        "weight": 0.805,
        "in_walk_radius": true
      },
      {
        "lat": 49.2510922,
        "lon": 24.63534439999999,
        "name": "City park",
        "rating": 3.7,
        "reviews": 462,
        "type": "park",
        "weight": 1.0,
        "in_walk_radius": true
      },
      {
        "lat": 49.2510412,
        "lon": 24.6328165,
        "name": "Aleya Vid Tsentru Mista Do Misʹkoho Parku.",
        "rating": 4.5,
        "reviews": 177,
        "type": "park",
        "weight": 1.0,
        "in_walk_radius": true
      },
      {
        "lat": 49.2513004,
        "lon": 24.6419659,
        "name": "Rybka Burshtyn",
        "rating": 0,
        "reviews": 0,
        "type": "park",
        "weight": 0.1,
        "in_walk_radius": false
      },
      {
        "lat": 49.25274350000001,
        "lon": 24.6315264,
        "name": "Бурштинський дошкільний навчальний заклад №2 «Берізка»",
        "rating": 5,
        "reviews": 1,
        "type": "school",
        "weight": 0.347,
        "in_walk_radius": true
      },
      {
        "lat": 49.25153599999999,
        "lon": 24.6296699,
        "name": "Бурштинський ліцей #2",
        "rating": 0,
        "reviews": 0,
        "type": "school",
        "weight": 0.1,
        "in_walk_radius": false
      },
      {
        "lat": 49.2493874,
        "lon": 24.6320594,
        "name": "Бурштинський дошкільний навчальний заклад №3 «Світлячок»",
        "rating": 5,
        "reviews": 3,
        "type": "school",
        "weight": 0.693,
        "in_walk_radius": false
      },
      {
        "lat": 49.25051999999999,
        "lon": 24.6293628,
        "name": "Himnaziya",
        "rating": 0,
        "reviews": 0,
        "type": "school",
        "weight": 0.1,
        "in_walk_radius": false
      },
      {
        "lat": 49.2506233,
        "lon": 24.628816,
        "name": "Burshtynsʹkyy Navchalʹno-Vykhovnyy Kompleks",
        "rating": 0,
        "reviews": 0,
        "type": "school",
        "weight": 0.1,
        "in_walk_radius": false
      },
      {
        "lat": 49.2498228,
        "lon": 24.6281175,
        "name": "\"Nadiya\" Tsentr Zdorov'ya I Krasy.",
        "rating": 3.3,
        "reviews": 16,
        "type": "hospital",
        "weight": 0.935,
        "in_walk_radius": false
      },
      {
        "lat": 49.2488098,
        "lon": 24.6275902,
        "name": "Burshtynsʹkyy Tsentr Pervynnoyi Medyko-Sanitarnoyi Dopomohy",
        "rating": 2,
        "reviews": 6,
        "type": "hospital",
        "weight": 0.389,
        "in_walk_radius": false
      },
      {
        "lat": 49.24868860000001,
        "lon": 24.6275496,
        "name": "City Hospital of Burshtyn",
        "rating": 2.9,
        "reviews": 20,
        "type": "hospital",
        "weight": 0.883,
        "in_walk_radius": false
      },
      {
        "lat": 49.2505993,
        "lon": 24.6309436,
        "name": "Privatbank",
        "rating": 3.1,
        "reviews": 18,
        "type": "bank",
        "weight": 0.913,
        "in_walk_radius": false
      },
      {
        "lat": 49.2517891,
        "lon": 24.6269703,
        "name": "Банкомат ПриватБанка",
        "rating": 4.3,
        "reviews": 3,
        "type": "bank",
        "weight": 0.596,
        "in_walk_radius": false
      },
      {
        "lat": 49.2510652,
        "lon": 24.6270113,
        "name": "Ощадбанк",
        "rating": 4.5,
        "reviews": 33,
        "type": "bank",
        "weight": 1.0,
        "in_walk_radius": false
      },
      {
        "lat": 49.25009050000001,
        "lon": 24.62585970000001,
        "name": "idea Bank",
        "rating": 4.6,
        "reviews": 56,
        "type": "bank",
        "weight": 1.0,
        "in_walk_radius": false
      },
      {
        "lat": 49.2508667,
        "lon": 24.6302881,
        "name": "Tochka Ekspres Pumb",
        "rating": 5,
        "reviews": 1,
        "type": "bank",
        "weight": 0.347,
        "in_walk_radius": false
      },
      {
        "lat": 49.25135059999999,
        "lon": 24.6277282,
        "name": "Salve №10",
        "rating": 3,
        "reviews": 4,
        "type": "pharmacy",
        "weight": 0.483,
        "in_walk_radius": false
      },
      {
        "lat": 49.25519689999999,
        "lon": 24.6329261,
        "name": "«Магро»",
        "rating": 0,
        "reviews": 0,
        "type": "pharmacy",
        "weight": 0.1,
        "in_walk_radius": true
      },
      {
        "lat": 49.25047819999999,
        "lon": 24.631581,
        "name": "Vetapteka",
        "rating": 0,
        "reviews": 0,
        "type": "pharmacy",
        "weight": 0.1,
        "in_walk_radius": true
      },
      {
        "lat": 49.25015,
        "lon": 24.63158,
        "name": "Аптека «Бажаємо здоров'я»",
        "rating": 5,
        "reviews": 6,
        "type": "pharmacy",
        "weight": 0.973,
        "in_walk_radius": true
      },
      {
        "lat": 49.24792170000001,
        "lon": 24.6329607,
        "name": "Apteka",
        "rating": 4,
        "reviews": 1,
        "type": "pharmacy",
        "weight": 0.277,
        "in_walk_radius": false
      }
    ],
    "collected_at": "2026-03-29T12:57:43.637812"
  }
}