{
  "_meta": {
    "generated": "2026-03-29T18:35:04.551665",
    "radius_walk": 500,
    "radius_car": 2000
  },
  "М1": {
    "peak": 33,
    "morning": 19,
    "evening": 28,
    "weekend": 29,
    "walk_radius": 500,
    "car_radius": 2000,
    "walk_places_count": 16,
    "car_places_count": 39,
    "heatmap_points": [
      {
        "lat": 50.44176179999999,
        "lon": 30.1638405,
        "name": "Fora",
        "rating": 3.9,
        "reviews": 428,
        "type": "supermarket",
        "weight": 1.0,
        "in_walk_radius": false
      },
      {
        "lat": 50.44293270000001,
        "lon": 30.1780101,
        "name": "АТБ-Маркет",
        "rating": 4.3,
        "reviews": 508,
        "type": "supermarket",
        "weight": 1.0,
        "in_walk_radius": true
      },
      {
        "lat": 50.44409340000001,
        "lon": 30.1850767,
        "name": "MegaMarket",
        "rating": 4.5,
        "reviews": 2568,
        "type": "supermarket",
        "weight": 1.0,
        "in_walk_radius": false
      },
      {
        "lat": 50.441483,
        "lon": 30.171581,
        "name": "Готельно - ресторанний комплекс \"Цитадель\"",
        "rating": 4.6,
        "reviews": 1083,
        "type": "restaurant",
        "weight": 1.0,
        "in_walk_radius": false
      },
      {
        "lat": 50.4380541,
        "lon": 30.1596796,
        "name": "Country complex \"Two Beavers\"",
        "rating": 4.3,
        "reviews": 1455,
        "type": "restaurant",
        "weight": 1.0,
        "in_walk_radius": false
      },
      {
        "lat": 50.4436036,
        "lon": 30.1845565,
        "name": "Festyvalʹ Sushi",
        "rating": 1.9,
        "reviews": 8,
        "type": "restaurant",
        "weight": 0.417,
        "in_walk_radius": false
      },
      {
        "lat": 50.4439928,
        "lon": 30.184635,
        "name": "Суші Sushi nice",
        "rating": 5,
        "reviews": 6,
        "type": "restaurant",
        "weight": 0.973,
        "in_walk_radius": false
      },
      {
        "lat": 50.4424496,
        "lon": 30.1828868,
        "name": "Zapravka Haz Propan-Butan",
        "rating": 0,
        "reviews": 0,
        "type": "cafe",
        "weight": 0.1,
        "in_walk_radius": true
      },
      {
        "lat": 50.4415764,
        "lon": 30.1721134,
        "name": "Кав‘ярня",
        "rating": 4.8,
        "reviews": 4,
        "type": "cafe",
        "weight": 0.773,
        "in_walk_radius": false
      },
      {
        "lat": 50.4419374,
        "lon": 30.1674399,
        "name": "Pizza&Roll",
        "rating": 0,
        "reviews": 0,
        "type": "cafe",
        "weight": 0.1,
        "in_walk_radius": false
      },
      {
        "lat": 50.4417389,
        "lon": 30.1651221,
        "name": "Coffe story",
        "rating": 4,
        "reviews": 4,
        "type": "cafe",
        "weight": 0.644,
        "in_walk_radius": false
      },
      {
        "lat": 50.4416941,
        "lon": 30.16395429999999,
        "name": "Garden Coffee",
        "rating": 4.3,
        "reviews": 7,
        "type": "cafe",
        "weight": 0.894,
        "in_walk_radius": false
      },
      {
        "lat": 50.4419615,
        "lon": 30.17115249999999,
        "name": "S. Myla",
        "rating": 0,
        "reviews": 0,
        "type": "transit_station",
        "weight": 0.1,
        "in_walk_radius": false
      },
      {
        "lat": 50.444043,
        "lon": 30.18268900000001,
        "name": "On Demand",
        "rating": 0,
        "reviews": 0,
        "type": "transit_station",
        "weight": 0.1,
        "in_walk_radius": true
      },
      {
        "lat": 50.441834,
        "lon": 30.172319,
        "name": "v. Myla",
        "rating": 4.3,
        "reviews": 6,
        "type": "transit_station",
        "weight": 0.837,
        "in_walk_radius": false
      },
      {
        "lat": 50.442659,
        "lon": 30.171509,
        "name": "v. Myla",
        "rating": 5,
        "reviews": 1,
        "type": "transit_station",
        "weight": 0.347,
        "in_walk_radius": false
      },
      {
        "lat": 50.44204,
        "lon": 30.169755,
        "name": "v. Myla",
        "rating": 4,
        "reviews": 2,
        "type": "transit_station",
        "weight": 0.439,
        "in_walk_radius": false
      },
      {
        "lat": 50.4256533,
        "lon": 30.2045994,
        "name": "Horenychi",
        "rating": 0,
        "reviews": 0,
        "type": "market",
        "weight": 0.1,
        "in_walk_radius": false
      },
      {
        "lat": 50.4440081,
        "lon": 30.1818099,
        "name": "Police Department",
        "rating": 0,
        "reviews": 0,
        "type": "market",
        "weight": 0.1,
        "in_walk_radius": true
      },
      {
        "lat": 50.439562,
        "lon": 30.172808,
        "name": "Tov\"Farby\"",
        "rating": 4.8,
        "reviews": 6,
        "type": "market",
        "weight": 0.934,
        "in_walk_radius": false
      },
      {
        "lat": 50.4391153,
        "lon": 30.172132,
        "name": "ЧИСТА ВОДА, CLEARWATER™ доставка бутильованої води",
        "rating": 4.1,
        "reviews": 249,
        "type": "market",
        "weight": 1.0,
        "in_walk_radius": false
      },
      {
        "lat": 50.446338,
        "lon": 30.18895,
        "name": "Medical - Rehabilitation Center. VT Hutsa",
        "rating": 4.5,
        "reviews": 177,
        "type": "gym",
        "weight": 1.0,
        "in_walk_radius": false
      },
      {
        "lat": 50.4445764,
        "lon": 30.1700699,
        "name": "Сонце Тибету",
        "rating": 3.3,
        "reviews": 4,
        "type": "gym",
        "weight": 0.531,
        "in_walk_radius": false
      },
      {
        "lat": 50.4423429,
        "lon": 30.16863600000001,
        "name": "P&P Athletics",
        "rating": 5,
        "reviews": 8,
        "type": "gym",
        "weight": 1.0,
        "in_walk_radius": false
      },
      {
        "lat": 50.456406,
        "lon": 30.16831359999999,
        "name": "Бокс.ММА.Єдиноборства.TRX.Повітряна гімнастика.",
        "rating": 4.5,
        "reviews": 20,
        "type": "gym",
        "weight": 1.0,
        "in_walk_radius": false
      },
      {
        "lat": 50.45663219999999,
        "lon": 30.1680757,
        "name": "Tsentr Rozvytku Dytyny Povnoho Dnya",
        "rating": 4.8,
        "reviews": 17,
        "type": "gym",
        "weight": 1.0,
        "in_walk_radius": false
      },
      {
        "lat": 50.449298,
        "lon": 30.194128,
        "name": "Санаторій Берізки",
        "rating": 0,
        "reviews": 0,
        "type": "park",
        "weight": 0.1,
        "in_walk_radius": false
      },
      {
        "lat": 50.4472296,
        "lon": 30.20157350000001,
        "name": "Horenytsʹkyy Zakaznyk",
        "rating": 5,
        "reviews": 6,
        "type": "park",
        "weight": 0.973,
        "in_walk_radius": false
      },
      {
        "lat": 50.4273251,
        "lon": 30.1861603,
        "name": "Sosnovyy Lis",
        "rating": 5,
        "reviews": 2,
        "type": "park",
        "weight": 0.549,
        "in_walk_radius": false
      },
      {
        "lat": 50.4424779,
        "lon": 30.1842486,
        "name": "Clinic Spizhenko",
        "rating": 4.1,
        "reviews": 242,
        "type": "hospital",
        "weight": 1.0,
        "in_walk_radius": true
      },
      {
        "lat": 50.44256840000001,
        "lon": 30.18380759999999,
        "name": "Центр Маммологии Спиженко",
        "rating": 3.7,
        "reviews": 3,
        "type": "hospital",
        "weight": 0.513,
        "in_walk_radius": true
      },
      {
        "lat": 50.4421148,
        "lon": 30.18405619999999,
        "name": "CyberKnife Center of Ukraine",
        "rating": 5,
        "reviews": 4,
        "type": "hospital",
        "weight": 0.805,
        "in_walk_radius": true
      },
      {
        "lat": 50.4452788,
        "lon": 30.1910812,
        "name": "Санаторий имени Гуца",
        "rating": 5,
        "reviews": 4,
        "type": "hospital",
        "weight": 0.805,
        "in_walk_radius": false
      },
      {
        "lat": 50.4574936,
        "lon": 30.1716229,
        "name": "Oschadbank",
        "rating": 4.5,
        "reviews": 39,
        "type": "bank",
        "weight": 1.0,
        "in_walk_radius": false
      },
      {
        "lat": 50.44288450000001,
        "lon": 30.17740400000001,
        "name": "Аптека «Бажаємо здоров'я»",
        "rating": 2.8,
        "reviews": 13,
        "type": "pharmacy",
        "weight": 0.739,
        "in_walk_radius": true
      },
      {
        "lat": 50.4421478,
        "lon": 30.1837758,
        "name": "Аптека #5",
        "rating": 0,
        "reviews": 0,
        "type": "pharmacy",
        "weight": 0.1,
        "in_walk_radius": true
      },
      {
        "lat": 50.4443333,
        "lon": 30.1845592,
        "name": "Аптекаръ",
        "rating": 2,
        "reviews": 8,
        "type": "pharmacy",
        "weight": 0.439,
        "in_walk_radius": false
      },
      {
        "lat": 50.44176179999999,
        "lon": 30.16384040000001,
        "name": "Ветеринарна аптека - Зоомагазин",
        "rating": 4.2,
        "reviews": 5,
        "type": "pharmacy",
        "weight": 0.753,
        "in_walk_radius": false
      },
      {
        "lat": 50.441736,
        "lon": 30.163811,
        "name": "Apteka Optovykh Ts",
        "rating": 3.2,
        "reviews": 9,
        "type": "pharmacy",
        "weight": 0.737,
        "in_walk_radius": false
      }
    ],
    "collected_at": "2026-03-29T18:35:11.305207",
    "population_walk": 107,
    "population_car": 2246,
    "population_heatmap": [
      {
        "lat": 50.43122,
        "lon": 30.19448,
        "pop": 155,
        "in_walk": false
      },
      {
        "lat": 50.43544,
        "lon": 30.20517,
        "pop": 225,
        "in_walk": false
      },
      {
        "lat": 50.45389,
        "lon": 30.16821,
        "pop": 147,
        "in_walk": false
      },
      {
        "lat": 50.44189,
        "lon": 30.15875,
        "pop": 116,
        "in_walk": false
      },
      {
        "lat": 50.44611,
        "lon": 30.16943,
        "pop": 55,
        "in_walk": false
      },
      {
        "lat": 50.44966,
        "lon": 30.15752,
        "pop": 17,
        "in_walk": false
      },
      {
        "lat": 50.43411,
        "lon": 30.15998,
        "pop": 56,
        "in_walk": false
      },
      {
        "lat": 50.43478,
        "lon": 30.18257,
        "pop": 21,
        "in_walk": false
      },
      {
        "lat": 50.43833,
        "lon": 30.17066,
        "pop": 304,
        "in_walk": false
      },
      {
        "lat": 50.427,
        "lon": 30.1838,
        "pop": 100,
        "in_walk": false
      },
      {
        "lat": 50.43055,
        "lon": 30.17189,
        "pop": 162,
        "in_walk": false
      },
      {
        "lat": 50.45811,
        "lon": 30.17889,
        "pop": 319,
        "in_walk": false
      },
      {
        "lat": 50.45033,
        "lon": 30.18012,
        "pop": 200,
        "in_walk": false
      },
      {
        "lat": 50.45099,
        "lon": 30.20272,
        "pop": 1,
        "in_walk": false
      },
      {
        "lat": 50.45455,
        "lon": 30.19081,
        "pop": 125,
        "in_walk": false
      },
      {
        "lat": 50.439,
        "lon": 30.19326,
        "pop": 27,
        "in_walk": false
      },
      {
        "lat": 50.44255,
        "lon": 30.18135,
        "pop": 107,
        "in_walk": true
      },
      {
        "lat": 50.44322,
        "lon": 30.20394,
        "pop": 53,
        "in_walk": false
      },
      {
        "lat": 50.44677,
        "lon": 30.19203,
        "pop": 56,
        "in_walk": false
      }
    ]
  },
  "М2": {
    "peak": 38,
    "morning": 22,
    "evening": 32,
    "weekend": 34,
    "walk_radius": 500,
    "car_radius": 2000,
    "walk_places_count": 6,
    "car_places_count": 20,
    "heatmap_points": [
      {
        "lat": 50.44176179999999,
        "lon": 30.1638405,
        "name": "Fora",
        "rating": 3.9,
        "reviews": 428,
        "type": "supermarket",
        "weight": 1.0,
        "in_walk_radius": false
      },
      {
        "lat": 50.441483,
        "lon": 30.171581,
        "name": "Готельно - ресторанний комплекс \"Цитадель\"",
        "rating": 4.6,
        "reviews": 1083,
        "type": "restaurant",
        "weight": 1.0,
        "in_walk_radius": false
      },
      {
        "lat": 50.4380541,
        "lon": 30.1596796,
        "name": "Country complex \"Two Beavers\"",
        "rating": 4.3,
        "reviews": 1455,
        "type": "restaurant",
        "weight": 1.0,
        "in_walk_radius": false
      },
      {
        "lat": 50.4403611,
        "lon": 30.1472822,
        "name": "Vivo Cafe",
        "rating": 4.3,
        "reviews": 210,
        "type": "cafe",
        "weight": 1.0,
        "in_walk_radius": true
      },
      {
        "lat": 50.4416869,
        "lon": 30.1630129,
        "name": "Echo Kava",
        "rating": 5,
        "reviews": 2,
        "type": "cafe",
        "weight": 0.549,
        "in_walk_radius": false
      },
      {
        "lat": 50.4416941,
        "lon": 30.16395429999999,
        "name": "Garden Coffee",
        "rating": 4.3,
        "reviews": 7,
        "type": "cafe",
        "weight": 0.894,
        "in_walk_radius": false
      },
      {
        "lat": 50.4417389,
        "lon": 30.1651221,
        "name": "Coffe story",
        "rating": 4,
        "reviews": 4,
        "type": "cafe",
        "weight": 0.644,
        "in_walk_radius": false
      },
      {
        "lat": 50.4419374,
        "lon": 30.1674399,
        "name": "Pizza&Roll",
        "rating": 0,
        "reviews": 0,
        "type": "cafe",
        "weight": 0.1,
        "in_walk_radius": false
      },
      {
        "lat": 50.438544,
        "lon": 30.13215899999999,
        "name": "v. Mriia",
        "rating": 3,
        "reviews": 2,
        "type": "transit_station",
        "weight": 0.33,
        "in_walk_radius": false
      },
      {
        "lat": 50.4385825,
        "lon": 30.1278855,
        "name": "S. Mriya",
        "rating": 0,
        "reviews": 0,
        "type": "transit_station",
        "weight": 0.1,
        "in_walk_radius": false
      },
      {
        "lat": 50.44204,
        "lon": 30.169755,
        "name": "v. Myla",
        "rating": 4,
        "reviews": 2,
        "type": "transit_station",
        "weight": 0.439,
        "in_walk_radius": false
      },
      {
        "lat": 50.439311,
        "lon": 30.128079,
        "name": "v. Mriia",
        "rating": 5,
        "reviews": 2,
        "type": "transit_station",
        "weight": 0.549,
        "in_walk_radius": false
      },
      {
        "lat": 50.437879,
        "lon": 30.12821299999999,
        "name": "v. Mriia",
        "rating": 5,
        "reviews": 1,
        "type": "transit_station",
        "weight": 0.347,
        "in_walk_radius": false
      },
      {
        "lat": 50.4150851,
        "lon": 30.1232536,
        "name": "Shpitki",
        "rating": 0,
        "reviews": 0,
        "type": "market",
        "weight": 0.1,
        "in_walk_radius": false
      },
      {
        "lat": 50.44045299999999,
        "lon": 30.1542575,
        "name": "ДТ EURO5 SWIMER",
        "rating": 4.4,
        "reviews": 14,
        "type": "market",
        "weight": 1.0,
        "in_walk_radius": false
      },
      {
        "lat": 50.4423429,
        "lon": 30.16863600000001,
        "name": "P&P Athletics",
        "rating": 5,
        "reviews": 8,
        "type": "gym",
        "weight": 1.0,
        "in_walk_radius": false
      },
      {
        "lat": 50.4445764,
        "lon": 30.1700699,
        "name": "Сонце Тибету",
        "rating": 3.3,
        "reviews": 4,
        "type": "gym",
        "weight": 0.531,
        "in_walk_radius": false
      },
      {
        "lat": 50.4384202,
        "lon": 30.1493349,
        "name": "Тренер по плаванию Алексей Саган",
        "rating": 0,
        "reviews": 0,
        "type": "school",
        "weight": 0.1,
        "in_walk_radius": true
      },
      {
        "lat": 50.441736,
        "lon": 30.163811,
        "name": "Apteka Optovykh Ts",
        "rating": 3.2,
        "reviews": 9,
        "type": "pharmacy",
        "weight": 0.737,
        "in_walk_radius": false
      },
      {
        "lat": 50.44176179999999,
        "lon": 30.16384040000001,
        "name": "Ветеринарна аптека - Зоомагазин",
        "rating": 4.2,
        "reviews": 5,
        "type": "pharmacy",
        "weight": 0.753,
        "in_walk_radius": false
      }
    ],
    "collected_at": "2026-03-29T18:35:17.332412",
    "population_walk": 38,
    "population_car": 1088,
    "population_heatmap": [
      {
        "lat": 50.45744,
        "lon": 30.15629,
        "pop": 91,
        "in_walk": false
      },
      {
        "lat": 50.44189,
        "lon": 30.15875,
        "pop": 116,
        "in_walk": false
      },
      {
        "lat": 50.44544,
        "lon": 30.14684,
        "pop": 1,
        "in_walk": false
      },
      {
        "lat": 50.44611,
        "lon": 30.16943,
        "pop": 55,
        "in_walk": false
      },
      {
        "lat": 50.44966,
        "lon": 30.15752,
        "pop": 17,
        "in_walk": false
      },
      {
        "lat": 50.44477,
        "lon": 30.12424,
        "pop": 1,
        "in_walk": false
      },
      {
        "lat": 50.44899,
        "lon": 30.13492,
        "pop": 2,
        "in_walk": false
      },
      {
        "lat": 50.43411,
        "lon": 30.15998,
        "pop": 56,
        "in_walk": false
      },
      {
        "lat": 50.43833,
        "lon": 30.17066,
        "pop": 304,
        "in_walk": false
      },
      {
        "lat": 50.42633,
        "lon": 30.16121,
        "pop": 157,
        "in_walk": false
      },
      {
        "lat": 50.43055,
        "lon": 30.17189,
        "pop": 162,
        "in_walk": false
      },
      {
        "lat": 50.43699,
        "lon": 30.12547,
        "pop": 56,
        "in_walk": false
      },
      {
        "lat": 50.43766,
        "lon": 30.14807,
        "pop": 38,
        "in_walk": true
      },
      {
        "lat": 50.44122,
        "lon": 30.13615,
        "pop": 7,
        "in_walk": false
      },
      {
        "lat": 50.42566,
        "lon": 30.13862,
        "pop": 22,
        "in_walk": false
      },
      {
        "lat": 50.42988,
        "lon": 30.1493,
        "pop": 2,
        "in_walk": false
      },
      {
        "lat": 50.43344,
        "lon": 30.13739,
        "pop": 1,
        "in_walk": false
      }
    ]
  }
}