{
  "_meta": {
    "generated": "2026-04-27T07:57:32.881427",
    "radius_walk": 400,
    "radius_car": 1000
  },
  "Новий Розділ ринок": {
    "peak": 32,
    "morning": 19,
    "evening": 27,
    "weekend": 28,
    "walk_radius": 400,
    "car_radius": 1000,
    "walk_places_count": 30,
    "car_places_count": 46,
    "heatmap_points": [
      {
        "lat": 49.4695662,
        "lon": 24.1424886,
        "name": "Trts Novyy",
        "rating": 4.3,
        "reviews": 32,
        "type": "shopping_mall",
        "weight": 1.0,
        "in_walk_radius": false
      },
      {
        "lat": 49.4714019,
        "lon": 24.1402475,
        "name": "Dytyachyy Mahazyn \"Kuzya\"",
        "rating": 5,
        "reviews": 1,
        "type": "shopping_mall",
        "weight": 0.347,
        "in_walk_radius": false
      },
      {
        "lat": 49.4710791,
        "lon": 24.14829109999999,
        "name": "Atb",
        "rating": 3.4,
        "reviews": 9,
        "type": "supermarket",
        "weight": 0.783,
        "in_walk_radius": true
      },
      {
        "lat": 49.4712979,
        "lon": 24.1490941,
        "name": "Avrora",
        "rating": 2.4,
        "reviews": 19,
        "type": "supermarket",
        "weight": 0.719,
        "in_walk_radius": true
      },
      {
        "lat": 49.4695907,
        "lon": 24.1424001,
        "name": "Сільпо",
        "rating": 4.5,
        "reviews": 626,
        "type": "supermarket",
        "weight": 1.0,
        "in_walk_radius": false
      },
      {
        "lat": 49.47326919999999,
        "lon": 24.1343673,
        "name": "Аврора",
        "rating": 2,
        "reviews": 1,
        "type": "supermarket",
        "weight": 0.139,
        "in_walk_radius": false
      },
      {
        "lat": 49.4687986,
        "lon": 24.142907,
        "name": "CubeFood",
        "rating": 4.3,
        "reviews": 4,
        "type": "restaurant",
        "weight": 0.692,
        "in_walk_radius": false
      },
      {
        "lat": 49.4696118,
        "lon": 24.1423789,
        "name": "Піцерія IQ Pizza",
        "rating": 4.9,
        "reviews": 175,
        "type": "restaurant",
        "weight": 1.0,
        "in_walk_radius": false
      },
      {
        "lat": 49.4696118,
        "lon": 24.1423789,
        "name": "New York Street Pizza",
        "rating": 4.4,
        "reviews": 146,
        "type": "restaurant",
        "weight": 1.0,
        "in_walk_radius": false
      },
      {
        "lat": 49.4718694,
        "lon": 24.1357943,
        "name": "Піцерія IQ Pizza",
        "rating": 4.8,
        "reviews": 223,
        "type": "restaurant",
        "weight": 1.0,
        "in_walk_radius": false
      },
      {
        "lat": 49.47303060000001,
        "lon": 24.1361396,
        "name": "Rozdil",
        "rating": 4.3,
        "reviews": 93,
        "type": "restaurant",
        "weight": 1.0,
        "in_walk_radius": false
      },
      {
        "lat": 49.4675204,
        "lon": 24.1368918,
        "name": "Okko",
        "rating": 4.1,
        "reviews": 305,
        "type": "cafe",
        "weight": 1.0,
        "in_walk_radius": false
      },
      {
        "lat": 49.47008899999999,
        "lon": 24.1419674,
        "name": "Cacao",
        "rating": 4.9,
        "reviews": 30,
        "type": "cafe",
        "weight": 1.0,
        "in_walk_radius": false
      },
      {
        "lat": 49.47034819999999,
        "lon": 24.153091,
        "name": "Imperator",
        "rating": 4,
        "reviews": 202,
        "type": "cafe",
        "weight": 1.0,
        "in_walk_radius": false
      },
      {
        "lat": 49.470257,
        "lon": 24.148341,
        "name": "Novyi Rozdil (Barvinok Shop)",
        "rating": 3,
        "reviews": 1,
        "type": "transit_station",
        "weight": 0.208,
        "in_walk_radius": true
      },
      {
        "lat": 49.470108,
        "lon": 24.1483,
        "name": "Novyi Rozdil (Barvinok Shop)",
        "rating": 0,
        "reviews": 0,
        "type": "transit_station",
        "weight": 0.1,
        "in_walk_radius": true
      },
      {
        "lat": 49.46993499999999,
        "lon": 24.143223,
        "name": "Novyi Rozdil (Naberezhne Lake)",
        "rating": 4,
        "reviews": 3,
        "type": "transit_station",
        "weight": 0.555,
        "in_walk_radius": false
      },
      {
        "lat": 49.470232,
        "lon": 24.14277,
        "name": "Novyi Rozdil (Naberezhne Lake)",
        "rating": 0,
        "reviews": 0,
        "type": "transit_station",
        "weight": 0.1,
        "in_walk_radius": false
      },
      {
        "lat": 49.46809699999999,
        "lon": 24.142584,
        "name": "Novyi Rozdil (Miska poliklinika)",
        "rating": 0,
        "reviews": 0,
        "type": "transit_station",
        "weight": 0.1,
        "in_walk_radius": false
      },
      {
        "lat": 49.4745036,
        "lon": 24.1290584,
        "name": "Novyi Rozdil",
        "rating": 0,
        "reviews": 0,
        "type": "market",
        "weight": 0.1,
        "in_walk_radius": false
      },
      {
        "lat": 49.46635449999999,
        "lon": 24.1471647,
        "name": "Rukavychka",
        "rating": 3.9,
        "reviews": 487,
        "type": "market",
        "weight": 1.0,
        "in_walk_radius": false
      },
      {
        "lat": 49.47194380000001,
        "lon": 24.1378265,
        "name": "Police",
        "rating": 0,
        "reviews": 0,
        "type": "market",
        "weight": 0.1,
        "in_walk_radius": false
      },
      {
        "lat": 49.4694763,
        "lon": 24.1463808,
        "name": "Адвокат Ощипок Володимир Степанович",
        "rating": 4,
        "reviews": 4,
        "type": "market",
        "weight": 0.644,
        "in_walk_radius": true
      },
      {
        "lat": 49.4705527,
        "lon": 24.1453884,
        "name": "Novorozdilskyy city employment center",
        "rating": 3.3,
        "reviews": 7,
        "type": "market",
        "weight": 0.686,
        "in_walk_radius": true
      },
      {
        "lat": 49.47044870000001,
        "lon": 24.1464225,
        "name": "🕊️\"Колібрі\" - студія повітряної гімнастики та пілонного спорту",
        "rating": 5,
        "reviews": 2,
        "type": "gym",
        "weight": 0.549,
        "in_walk_radius": true
      },
      {
        "lat": 49.47032919999999,
        "lon": 24.1519437,
        "name": "Sportyvnyy Klub \"Feniks Sport\"",
        "rating": 4.8,
        "reviews": 58,
        "type": "gym",
        "weight": 1.0,
        "in_walk_radius": false
      },
      {
        "lat": 49.4702642,
        "lon": 24.1515422,
        "name": "Novorozdilska School №5",
        "rating": 0,
        "reviews": 0,
        "type": "school",
        "weight": 0.1,
        "in_walk_radius": false
      },
      {
        "lat": 49.4705699,
        "lon": 24.1516962,
        "name": "Школа №5 Джорни Джованни",
        "rating": 0,
        "reviews": 0,
        "type": "school",
        "weight": 0.1,
        "in_walk_radius": false
      },
      {
        "lat": 49.46762289999999,
        "lon": 24.1490462,
        "name": "Dnz Malyatko 8",
        "rating": 0,
        "reviews": 0,
        "type": "school",
        "weight": 0.1,
        "in_walk_radius": true
      },
      {
        "lat": 49.4673925,
        "lon": 24.1462402,
        "name": "Novorozdilska School №4",
        "rating": 0,
        "reviews": 0,
        "type": "school",
        "weight": 0.1,
        "in_walk_radius": true
      },
      {
        "lat": 49.4703454,
        "lon": 24.1396359,
        "name": "«Мудрик» Новий Розділ",
        "rating": 0,
        "reviews": 0,
        "type": "school",
        "weight": 0.1,
        "in_walk_radius": false
      },
      {
        "lat": 49.4683117,
        "lon": 24.1398831,
        "name": "Likarnya",
        "rating": 4,
        "reviews": 2,
        "type": "hospital",
        "weight": 0.439,
        "in_walk_radius": false
      },
      {
        "lat": 49.46861690000001,
        "lon": 24.1416322,
        "name": "Ambulatoriya Novyi Rozdil",
        "rating": 3.5,
        "reviews": 2,
        "type": "hospital",
        "weight": 0.385,
        "in_walk_radius": false
      },
      {
        "lat": 49.4680839,
        "lon": 24.1420017,
        "name": "Misʹka Poliklinika",
        "rating": 2.6,
        "reviews": 7,
        "type": "hospital",
        "weight": 0.541,
        "in_walk_radius": false
      },
      {
        "lat": 49.467855,
        "lon": 24.1409851,
        "name": "Компʼютерна томографія «Медікал Скан»",
        "rating": 5,
        "reviews": 3,
        "type": "hospital",
        "weight": 0.693,
        "in_walk_radius": false
      },
      {
        "lat": 49.467855,
        "lon": 24.1409851,
        "name": "КНП \"Новороздільська міська лікарня\"",
        "rating": 2.4,
        "reviews": 24,
        "type": "hospital",
        "weight": 0.773,
        "in_walk_radius": false
      },
      {
        "lat": 49.4692267,
        "lon": 24.1454035,
        "name": "Ощадбанк",
        "rating": 4.9,
        "reviews": 52,
        "type": "bank",
        "weight": 1.0,
        "in_walk_radius": true
      },
      {
        "lat": 49.47293759999999,
        "lon": 24.1360449,
        "name": "Raiffeisen Bank",
        "rating": 4.2,
        "reviews": 21,
        "type": "bank",
        "weight": 1.0,
        "in_walk_radius": false
      },
      {
        "lat": 49.4730259,
        "lon": 24.1343438,
        "name": "Ощадбанк",
        "rating": 4.8,
        "reviews": 79,
        "type": "bank",
        "weight": 1.0,
        "in_walk_radius": false
      },
      {
        "lat": 49.469548,
        "lon": 24.146984,
        "name": "Ukrhazbank",
        "rating": 4.2,
        "reviews": 16,
        "type": "bank",
        "weight": 1.0,
        "in_walk_radius": true
      },
      {
        "lat": 49.4675331,
        "lon": 24.1444931,
        "name": "Банкомат ПриватБанка",
        "rating": 0,
        "reviews": 0,
        "type": "bank",
        "weight": 0.1,
        "in_walk_radius": false
      },
      {
        "lat": 49.4692662,
        "lon": 24.1453929,
        "name": "Apteka 3I",
        "rating": 4,
        "reviews": 3,
        "type": "pharmacy",
        "weight": 0.555,
        "in_walk_radius": true
      },
      {
        "lat": 49.46977099999999,
        "lon": 24.1476294,
        "name": "Аптека «Бажаємо здоров'я»",
        "rating": 0,
        "reviews": 0,
        "type": "pharmacy",
        "weight": 0.1,
        "in_walk_radius": true
      },
      {
        "lat": 49.4695236,
        "lon": 24.1457631,
        "name": "Аптека «Подорожник»",
        "rating": 3.9,
        "reviews": 15,
        "type": "pharmacy",
        "weight": 1.0,
        "in_walk_radius": true
      },
      {
        "lat": 49.4696422,
        "lon": 24.1491184,
        "name": "Apteka Pulʹs",
        "rating": 5,
        "reviews": 1,
        "type": "pharmacy",
        "weight": 0.347,
        "in_walk_radius": true
      },
      {
        "lat": 49.4692267,
        "lon": 24.1454035,
        "name": "Аптека оптових ц",
        "rating": 1,
        "reviews": 1,
        "type": "pharmacy",
        "weight": 0.069,
        "in_walk_radius": true
      }
    ],
    "collected_at": "2026-04-27T07:57:40.758528",
    "population_walk": 0,
    "population_car": 4688,
    "population_heatmap": [
      {
        "lat": 49.46608,
        "lon": 24.14273,
        "pop": 1886,
        "in_walk": false
      },
      {
        "lat": 49.47094,
        "lon": 24.15299,
        "pop": 1764,
        "in_walk": false
      },
      {
        "lat": 49.4631,
        "lon": 24.15486,
        "pop": 402,
        "in_walk": false
      },
      {
        "lat": 49.47392,
        "lon": 24.14086,
        "pop": 529,
        "in_walk": false
      },
      {
        "lat": 49.47878,
        "lon": 24.15112,
        "pop": 107,
        "in_walk": false
      }
    ]
  }
}