{
  "_meta": {
    "generated": "2026-03-29T17:16:48.238492",
    "radius_walk": 500,
    "radius_car": 1500
  },
  "ІФ1": {
    "peak": 32,
    "morning": 19,
    "evening": 27,
    "weekend": 28,
    "walk_radius": 500,
    "car_radius": 1500,
    "walk_places_count": 24,
    "car_places_count": 55,
    "heatmap_points": [
      {
        "lat": 48.9241453,
        "lon": 24.7362075,
        "name": "Tts Koshyk",
        "rating": 4.3,
        "reviews": 104,
        "type": "shopping_mall",
        "weight": 1.0,
        "in_walk_radius": false
      },
      {
        "lat": 48.9249109,
        "lon": 24.7434623,
        "name": "Tts Zhuravelʹ",
        "rating": 5,
        "reviews": 4,
        "type": "shopping_mall",
        "weight": 0.805,
        "in_walk_radius": false
      },
      {
        "lat": 48.91219160000001,
        "lon": 24.7204563,
        "name": "Torhovyy Tsentr \"Kyyivsʹkyy\"",
        "rating": 2.3,
        "reviews": 8,
        "type": "shopping_mall",
        "weight": 0.505,
        "in_walk_radius": false
      },
      {
        "lat": 48.90542889999999,
        "lon": 24.7259872,
        "name": "Prykarpat·sʹkyy Torhovyy Dim",
        "rating": 3.9,
        "reviews": 54,
        "type": "shopping_mall",
        "weight": 1.0,
        "in_walk_radius": false
      },
      {
        "lat": 48.91643519999999,
        "lon": 24.74042769999999,
        "name": "Budova. Pryvatne Pidpryyemstvo \"Vyrobnycho-Komertsiyna Firma \"Alef-Promkomplekt\"",
        "rating": 0,
        "reviews": 0,
        "type": "supermarket",
        "weight": 0.1,
        "in_walk_radius": true
      },
      {
        "lat": 48.917743,
        "lon": 24.7415051,
        "name": "Atb",
        "rating": 4.6,
        "reviews": 16,
        "type": "supermarket",
        "weight": 1.0,
        "in_walk_radius": true
      },
      {
        "lat": 48.9187088,
        "lon": 24.7369066,
        "name": "Blyzenʹko",
        "rating": 4,
        "reviews": 4,
        "type": "supermarket",
        "weight": 0.644,
        "in_walk_radius": false
      },
      {
        "lat": 48.91972629999999,
        "lon": 24.73879449999999,
        "name": "Rukavychka",
        "rating": 2.2,
        "reviews": 11,
        "type": "supermarket",
        "weight": 0.547,
        "in_walk_radius": false
      },
      {
        "lat": 48.9161636,
        "lon": 24.7327825,
        "name": "Blyzenʹko",
        "rating": 3.3,
        "reviews": 12,
        "type": "supermarket",
        "weight": 0.846,
        "in_walk_radius": false
      },
      {
        "lat": 48.9171584,
        "lon": 24.7429292,
        "name": "Legend",
        "rating": 4.4,
        "reviews": 1227,
        "type": "restaurant",
        "weight": 1.0,
        "in_walk_radius": true
      },
      {
        "lat": 48.92286209999999,
        "lon": 24.72927099999999,
        "name": "Stanislavsky Dvir",
        "rating": 4.4,
        "reviews": 1073,
        "type": "restaurant",
        "weight": 1.0,
        "in_walk_radius": false
      },
      {
        "lat": 48.9063464,
        "lon": 24.7309798,
        "name": "Dining fast food \"Tray\"",
        "rating": 4.5,
        "reviews": 128,
        "type": "restaurant",
        "weight": 1.0,
        "in_walk_radius": false
      },
      {
        "lat": 48.9143298,
        "lon": 24.7469428,
        "name": "Готельно-ресторанний комплекс Mon Ami",
        "rating": 4.5,
        "reviews": 417,
        "type": "restaurant",
        "weight": 1.0,
        "in_walk_radius": false
      },
      {
        "lat": 48.91530339999999,
        "lon": 24.7490702,
        "name": "Ресторан Virtuoso: доставка піци та страв",
        "rating": 4.5,
        "reviews": 124,
        "type": "restaurant",
        "weight": 1.0,
        "in_walk_radius": false
      },
      {
        "lat": 48.9145412,
        "lon": 24.7487256,
        "name": "Okko",
        "rating": 4.3,
        "reviews": 1249,
        "type": "cafe",
        "weight": 1.0,
        "in_walk_radius": false
      },
      {
        "lat": 48.9137138,
        "lon": 24.7371518,
        "name": "кафе Каліфорнія",
        "rating": 0,
        "reviews": 0,
        "type": "cafe",
        "weight": 0.1,
        "in_walk_radius": true
      },
      {
        "lat": 48.917124,
        "lon": 24.7339717,
        "name": "3:16 Khrystyyansʹke Kafe",
        "rating": 5,
        "reviews": 2,
        "type": "cafe",
        "weight": 0.549,
        "in_walk_radius": false
      },
      {
        "lat": 48.9161916,
        "lon": 24.7490365,
        "name": "YOUR COFFEE",
        "rating": 4.5,
        "reviews": 22,
        "type": "cafe",
        "weight": 1.0,
        "in_walk_radius": false
      },
      {
        "lat": 48.914718,
        "lon": 24.739164,
        "name": "Vul. Mykytynetsʹka",
        "rating": 0,
        "reviews": 0,
        "type": "transit_station",
        "weight": 0.1,
        "in_walk_radius": true
      },
      {
        "lat": 48.91896250000001,
        "lon": 24.7426525,
        "name": "Vul. Kysilevsʹkoyi",
        "rating": 0,
        "reviews": 0,
        "type": "transit_station",
        "weight": 0.1,
        "in_walk_radius": false
      },
      {
        "lat": 48.9161905,
        "lon": 24.733832,
        "name": "Vul. Truskavetsʹka",
        "rating": 0,
        "reviews": 0,
        "type": "transit_station",
        "weight": 0.1,
        "in_walk_radius": false
      },
      {
        "lat": 48.913875,
        "lon": 24.748148,
        "name": "Azs",
        "rating": 0,
        "reviews": 0,
        "type": "transit_station",
        "weight": 0.1,
        "in_walk_radius": false
      },
      {
        "lat": 48.9228725,
        "lon": 24.741461,
        "name": "Vul. Khotkevycha",
        "rating": 0,
        "reviews": 0,
        "type": "transit_station",
        "weight": 0.1,
        "in_walk_radius": false
      },
      {
        "lat": 48.9200616,
        "lon": 24.7089157,
        "name": "Ivano-Frankivsk",
        "rating": 0,
        "reviews": 0,
        "type": "market",
        "weight": 0.1,
        "in_walk_radius": false
      },
      {
        "lat": 48.9179385,
        "lon": 24.741551,
        "name": "Faraon Hotel",
        "rating": 4,
        "reviews": 548,
        "type": "market",
        "weight": 1.0,
        "in_walk_radius": true
      },
      {
        "lat": 48.9135007,
        "lon": 24.7584196,
        "name": "Срібна Лавка",
        "rating": 0,
        "reviews": 0,
        "type": "market",
        "weight": 0.1,
        "in_walk_radius": false
      },
      {
        "lat": 48.9155962,
        "lon": 24.7355072,
        "name": "Monster Gym",
        "rating": 4,
        "reviews": 1,
        "type": "gym",
        "weight": 0.277,
        "in_walk_radius": false
      },
      {
        "lat": 48.9150115,
        "lon": 24.7348086,
        "name": "Ivano-Frankivsʹka Federatsiya Shakhiv Shakhmatnyy Klub",
        "rating": 3.4,
        "reviews": 13,
        "type": "gym",
        "weight": 0.897,
        "in_walk_radius": false
      },
      {
        "lat": 48.9170475,
        "lon": 24.7482048,
        "name": "Гоцканє - фітнес студія",
        "rating": 5,
        "reviews": 36,
        "type": "gym",
        "weight": 1.0,
        "in_walk_radius": false
      },
      {
        "lat": 48.9253276,
        "lon": 24.742567,
        "name": "Sportyvnyy Klub Lehion",
        "rating": 4.9,
        "reviews": 65,
        "type": "gym",
        "weight": 1.0,
        "in_walk_radius": false
      },
      {
        "lat": 48.92526489999999,
        "lon": 24.7327012,
        "name": "Аюрведа",
        "rating": 4.6,
        "reviews": 26,
        "type": "gym",
        "weight": 1.0,
        "in_walk_radius": false
      },
      {
        "lat": 48.9153354,
        "lon": 24.7242577,
        "name": "Озеро Товарне",
        "rating": 5,
        "reviews": 2,
        "type": "park",
        "weight": 0.549,
        "in_walk_radius": false
      },
      {
        "lat": 48.92581520000001,
        "lon": 24.7353775,
        "name": "Pampy",
        "rating": 0,
        "reviews": 0,
        "type": "park",
        "weight": 0.1,
        "in_walk_radius": false
      },
      {
        "lat": 48.9175157,
        "lon": 24.7234835,
        "name": "Сквер Чорнобильців",
        "rating": 4,
        "reviews": 1,
        "type": "park",
        "weight": 0.277,
        "in_walk_radius": false
      },
      {
        "lat": 48.9264005,
        "lon": 24.7359468,
        "name": "Park Im. Khotkevycha",
        "rating": 3.5,
        "reviews": 4,
        "type": "park",
        "weight": 0.563,
        "in_walk_radius": false
      },
      {
        "lat": 48.9261766,
        "lon": 24.73455,
        "name": "Zona Vidpochynku",
        "rating": 0,
        "reviews": 0,
        "type": "park",
        "weight": 0.1,
        "in_walk_radius": false
      },
      {
        "lat": 48.9209062,
        "lon": 24.7391178,
        "name": "Ліцей №19",
        "rating": 0,
        "reviews": 0,
        "type": "school",
        "weight": 0.1,
        "in_walk_radius": false
      },
      {
        "lat": 48.9192877,
        "lon": 24.74028849999999,
        "name": "Kindergarten №27 \"Carpathian's Tale\"",
        "rating": 3.5,
        "reviews": 10,
        "type": "school",
        "weight": 0.839,
        "in_walk_radius": true
      },
      {
        "lat": 48.9072484,
        "lon": 24.7496109,
        "name": "Nikitynets Lyceum",
        "rating": 0,
        "reviews": 0,
        "type": "school",
        "weight": 0.1,
        "in_walk_radius": false
      },
      {
        "lat": 48.91487799999999,
        "lon": 24.7227466,
        "name": "Початкова школа №26 Івано-Франківської міської ради",
        "rating": 0,
        "reviews": 0,
        "type": "school",
        "weight": 0.1,
        "in_walk_radius": false
      },
      {
        "lat": 48.9164738,
        "lon": 24.7356094,
        "name": "Ліцей №15",
        "rating": 0,
        "reviews": 0,
        "type": "school",
        "weight": 0.1,
        "in_walk_radius": false
      },
      {
        "lat": 48.9200283,
        "lon": 24.7370508,
        "name": "46 Branch City Children's Hospital",
        "rating": 5,
        "reviews": 1,
        "type": "hospital",
        "weight": 0.347,
        "in_walk_radius": false
      },
      {
        "lat": 48.9191444,
        "lon": 24.725093,
        "name": "Proktolohiya Veselovsʹkoho",
        "rating": 4.8,
        "reviews": 187,
        "type": "hospital",
        "weight": 1.0,
        "in_walk_radius": false
      },
      {
        "lat": 48.9168657,
        "lon": 24.7340579,
        "name": "Khospis, Likarnya",
        "rating": 3.7,
        "reviews": 16,
        "type": "hospital",
        "weight": 1.0,
        "in_walk_radius": false
      },
      {
        "lat": 48.91698419999999,
        "lon": 24.7335741,
        "name": "Knp \"Ivano-Frankivsʹkyy Oblasnyy Klinichnyy Tsentr Paliatyvnoyi Dopomohy Ivano-Frankivsʹkoyi Oblasnoyi Rady\"",
        "rating": 5,
        "reviews": 1,
        "type": "hospital",
        "weight": 0.347,
        "in_walk_radius": false
      },
      {
        "lat": 48.9157424,
        "lon": 24.7320474,
        "name": "Медичний дієтологічний центр - Клініка Доктора Бровко",
        "rating": 0,
        "reviews": 0,
        "type": "hospital",
        "weight": 0.1,
        "in_walk_radius": false
      },
      {
        "lat": 48.919708,
        "lon": 24.73883,
        "name": "Oschadbank",
        "rating": 1.9,
        "reviews": 8,
        "type": "bank",
        "weight": 0.417,
        "in_walk_radius": false
      },
      {
        "lat": 48.9182826,
        "lon": 24.7225692,
        "name": "Privatbank",
        "rating": 2.8,
        "reviews": 41,
        "type": "bank",
        "weight": 1.0,
        "in_walk_radius": false
      },
      {
        "lat": 48.9177753,
        "lon": 24.7210024,
        "name": "UniCredit Bank",
        "rating": 4,
        "reviews": 5,
        "type": "bank",
        "weight": 0.717,
        "in_walk_radius": false
      },
      {
        "lat": 48.9178422,
        "lon": 24.7201923,
        "name": "Ekspres-Bank",
        "rating": 0,
        "reviews": 0,
        "type": "bank",
        "weight": 0.1,
        "in_walk_radius": false
      },
      {
        "lat": 48.9237316,
        "lon": 24.7379447,
        "name": "Med-Servis",
        "rating": 3.6,
        "reviews": 27,
        "type": "pharmacy",
        "weight": 1.0,
        "in_walk_radius": false
      },
      {
        "lat": 48.9182624,
        "lon": 24.7252019,
        "name": "Vetapteka Ta Zoomahazyn \"Zoosvit\"",
        "rating": 4.4,
        "reviews": 80,
        "type": "pharmacy",
        "weight": 1.0,
        "in_walk_radius": false
      },
      {
        "lat": 48.9157906,
        "lon": 24.7350224,
        "name": "Аптека «Подорожник»",
        "rating": 4.4,
        "reviews": 15,
        "type": "pharmacy",
        "weight": 1.0,
        "in_walk_radius": false
      },
      {
        "lat": 48.9154926,
        "lon": 24.734609,
        "name": "Apteka Ants",
        "rating": 3,
        "reviews": 2,
        "type": "pharmacy",
        "weight": 0.33,
        "in_walk_radius": false
      },
      {
        "lat": 48.91592789999999,
        "lon": 24.7341645,
        "name": "Аптека «Подорожник»",
        "rating": 5,
        "reviews": 7,
        "type": "pharmacy",
        "weight": 1.0,
        "in_walk_radius": false
      }
    ],
    "collected_at": "2026-03-29T17:16:55.832587",
    "population_walk": 6503,
    "population_car": 36562,
    "population_heatmap": [
      {
        "lat": 48.92497,
        "lon": 24.73497,
        "pop": 5791,
        "in_walk": false
      },
      {
        "lat": 48.90432,
        "lon": 24.72834,
        "pop": 4437,
        "in_walk": false
      },
      {
        "lat": 48.91706,
        "lon": 24.73676,
        "pop": 6503,
        "in_walk": true
      },
      {
        "lat": 48.91884,
        "lon": 24.759,
        "pop": 1065,
        "in_walk": false
      },
      {
        "lat": 48.9219,
        "lon": 24.74698,
        "pop": 1044,
        "in_walk": false
      },
      {
        "lat": 48.90609,
        "lon": 24.75057,
        "pop": 1683,
        "in_walk": false
      },
      {
        "lat": 48.90916,
        "lon": 24.73856,
        "pop": 2113,
        "in_walk": false
      },
      {
        "lat": 48.914,
        "lon": 24.74878,
        "pop": 1529,
        "in_walk": false
      },
      {
        "lat": 48.92013,
        "lon": 24.72475,
        "pop": 7035,
        "in_walk": false
      },
      {
        "lat": 48.91222,
        "lon": 24.72654,
        "pop": 5362,
        "in_walk": false
      }
    ]
  },
  "ІФ2": {
    "peak": 45,
    "morning": 27,
    "evening": 38,
    "weekend": 40,
    "walk_radius": 500,
    "car_radius": 1500,
    "walk_places_count": 56,
    "car_places_count": 58,
    "heatmap_points": [
      {
        "lat": 48.9251828,
        "lon": 24.7121979,
        "name": "Horyzont, Torhovyy Tsentr",
        "rating": 3.8,
        "reviews": 249,
        "type": "shopping_mall",
        "weight": 1.0,
        "in_walk_radius": true
      },
      {
        "lat": 48.9242469,
        "lon": 24.7083545,
        "name": "Zebra",
        "rating": 3.9,
        "reviews": 983,
        "type": "shopping_mall",
        "weight": 1.0,
        "in_walk_radius": true
      },
      {
        "lat": 48.92372229999999,
        "lon": 24.7100887,
        "name": "Ideal",
        "rating": 3.9,
        "reviews": 348,
        "type": "shopping_mall",
        "weight": 1.0,
        "in_walk_radius": true
      },
      {
        "lat": 48.9244007,
        "lon": 24.7088883,
        "name": "Sesame",
        "rating": 3.9,
        "reviews": 284,
        "type": "shopping_mall",
        "weight": 1.0,
        "in_walk_radius": true
      },
      {
        "lat": 48.9230809,
        "lon": 24.7097272,
        "name": "Yabluko",
        "rating": 3.8,
        "reviews": 22,
        "type": "shopping_mall",
        "weight": 1.0,
        "in_walk_radius": true
      },
      {
        "lat": 48.925688,
        "lon": 24.7107597,
        "name": "Silpo",
        "rating": 4,
        "reviews": 4267,
        "type": "supermarket",
        "weight": 1.0,
        "in_walk_radius": true
      },
      {
        "lat": 48.93509939999999,
        "lon": 24.705557,
        "name": "Teplokram",
        "rating": 4.8,
        "reviews": 121,
        "type": "supermarket",
        "weight": 1.0,
        "in_walk_radius": false
      },
      {
        "lat": 48.923733,
        "lon": 24.7101646,
        "name": "Аврора",
        "rating": 2,
        "reviews": 21,
        "type": "supermarket",
        "weight": 0.618,
        "in_walk_radius": true
      },
      {
        "lat": 48.92698439999999,
        "lon": 24.7091736,
        "name": "ATB-Market",
        "rating": 4.2,
        "reviews": 1892,
        "type": "supermarket",
        "weight": 1.0,
        "in_walk_radius": true
      },
      {
        "lat": 48.9270134,
        "lon": 24.71458239999999,
        "name": "Produkty",
        "rating": 4,
        "reviews": 32,
        "type": "supermarket",
        "weight": 1.0,
        "in_walk_radius": true
      },
      {
        "lat": 48.9222759,
        "lon": 24.70906,
        "name": "Franz",
        "rating": 4.3,
        "reviews": 272,
        "type": "restaurant",
        "weight": 1.0,
        "in_walk_radius": true
      },
      {
        "lat": 48.92354220000001,
        "lon": 24.70981370000001,
        "name": "Atrium",
        "rating": 4.5,
        "reviews": 440,
        "type": "restaurant",
        "weight": 1.0,
        "in_walk_radius": true
      },
      {
        "lat": 48.92286209999999,
        "lon": 24.72927099999999,
        "name": "Stanislavsky Dvir",
        "rating": 4.4,
        "reviews": 1073,
        "type": "restaurant",
        "weight": 1.0,
        "in_walk_radius": false
      },
      {
        "lat": 48.9199602,
        "lon": 24.71184879999999,
        "name": "Desiatka",
        "rating": 4.7,
        "reviews": 20412,
        "type": "restaurant",
        "weight": 1.0,
        "in_walk_radius": true
      },
      {
        "lat": 48.9218846,
        "lon": 24.7083988,
        "name": "Florens",
        "rating": 4.6,
        "reviews": 1734,
        "type": "restaurant",
        "weight": 1.0,
        "in_walk_radius": true
      },
      {
        "lat": 48.921072,
        "lon": 24.711845,
        "name": "Manufactura",
        "rating": 4.7,
        "reviews": 1882,
        "type": "cafe",
        "weight": 1.0,
        "in_walk_radius": true
      },
      {
        "lat": 48.92336270000001,
        "lon": 24.71098509999999,
        "name": "Zolota Lira",
        "rating": 4.3,
        "reviews": 331,
        "type": "cafe",
        "weight": 1.0,
        "in_walk_radius": true
      },
      {
        "lat": 48.92350870000001,
        "lon": 24.7103099,
        "name": "Delikates",
        "rating": 4.1,
        "reviews": 803,
        "type": "cafe",
        "weight": 1.0,
        "in_walk_radius": true
      },
      {
        "lat": 48.923604,
        "lon": 24.709482,
        "name": "Bize",
        "rating": 4.5,
        "reviews": 340,
        "type": "cafe",
        "weight": 1.0,
        "in_walk_radius": true
      },
      {
        "lat": 48.9251085,
        "lon": 24.710316,
        "name": "Tsum",
        "rating": 0,
        "reviews": 0,
        "type": "transit_station",
        "weight": 0.1,
        "in_walk_radius": true
      },
      {
        "lat": 48.92395450000001,
        "lon": 24.7015255,
        "name": "School №4",
        "rating": 0,
        "reviews": 0,
        "type": "transit_station",
        "weight": 0.1,
        "in_walk_radius": false
      },
      {
        "lat": 48.9252115,
        "lon": 24.723037,
        "name": "Railway station",
        "rating": 5,
        "reviews": 1,
        "type": "transit_station",
        "weight": 0.347,
        "in_walk_radius": false
      },
      {
        "lat": 48.924848,
        "lon": 24.710694,
        "name": "TsUM",
        "rating": 4.2,
        "reviews": 21,
        "type": "transit_station",
        "weight": 1.0,
        "in_walk_radius": true
      },
      {
        "lat": 48.925369,
        "lon": 24.709938,
        "name": "TsUM",
        "rating": 3.9,
        "reviews": 13,
        "type": "transit_station",
        "weight": 1.0,
        "in_walk_radius": true
      },
      {
        "lat": 48.9200616,
        "lon": 24.7089157,
        "name": "Ivano-Frankivsk",
        "rating": 0,
        "reviews": 0,
        "type": "market",
        "weight": 0.1,
        "in_walk_radius": false
      },
      {
        "lat": 48.92368289999999,
        "lon": 24.7090399,
        "name": "Ivano-Frankivsk Regional Art Museum",
        "rating": 4.5,
        "reviews": 258,
        "type": "market",
        "weight": 1.0,
        "in_walk_radius": true
      },
      {
        "lat": 48.9220318,
        "lon": 24.7116503,
        "name": "Під Темплем",
        "rating": 4.6,
        "reviews": 295,
        "type": "market",
        "weight": 1.0,
        "in_walk_radius": true
      },
      {
        "lat": 48.9186976,
        "lon": 24.7074905,
        "name": "Hotelʹ Stanislaviv",
        "rating": 4.5,
        "reviews": 1148,
        "type": "market",
        "weight": 1.0,
        "in_walk_radius": false
      },
      {
        "lat": 48.9300184,
        "lon": 24.7121993,
        "name": "FitCurves",
        "rating": 4.3,
        "reviews": 25,
        "type": "gym",
        "weight": 1.0,
        "in_walk_radius": false
      },
      {
        "lat": 48.9188149,
        "lon": 24.714438,
        "name": "F3 | Маркет здорового харчування | Спортивне харчування | Вітаміни | Мінерали | БАДИ",
        "rating": 5,
        "reviews": 199,
        "type": "gym",
        "weight": 1.0,
        "in_walk_radius": false
      },
      {
        "lat": 48.9237022,
        "lon": 24.7110012,
        "name": "Namaskar",
        "rating": 5,
        "reviews": 4,
        "type": "gym",
        "weight": 0.805,
        "in_walk_radius": true
      },
      {
        "lat": 48.9261716,
        "lon": 24.7060083,
        "name": "Sportklub\"Lider\"",
        "rating": 4.9,
        "reviews": 37,
        "type": "gym",
        "weight": 1.0,
        "in_walk_radius": false
      },
      {
        "lat": 48.9215695,
        "lon": 24.7013988,
        "name": "Sʹohun",
        "rating": 4.8,
        "reviews": 16,
        "type": "gym",
        "weight": 1.0,
        "in_walk_radius": false
      },
      {
        "lat": 48.92360579999999,
        "lon": 24.7213184,
        "name": "Туристичне агентство *VISAWAY-TRAVEL *ТзОВ Караван Плюс",
        "rating": 5,
        "reviews": 1,
        "type": "park",
        "weight": 0.347,
        "in_walk_radius": false
      },
      {
        "lat": 48.9241817,
        "lon": 24.7130262,
        "name": "Helikopter",
        "rating": 0,
        "reviews": 0,
        "type": "park",
        "weight": 0.1,
        "in_walk_radius": true
      },
      {
        "lat": 48.922633,
        "lon": 24.711117,
        "name": "Busʹk",
        "rating": 0,
        "reviews": 0,
        "type": "park",
        "weight": 0.1,
        "in_walk_radius": true
      },
      {
        "lat": 48.922633,
        "lon": 24.711117,
        "name": "фівііпфК",
        "rating": 0,
        "reviews": 0,
        "type": "park",
        "weight": 0.1,
        "in_walk_radius": true
      },
      {
        "lat": 48.922633,
        "lon": 24.711117,
        "name": "Misʹkyy Park Kulʹtury Ta Vidpochynku Im. T.shevchenka",
        "rating": 0,
        "reviews": 0,
        "type": "park",
        "weight": 0.1,
        "in_walk_radius": true
      },
      {
        "lat": 48.9208715,
        "lon": 24.7140339,
        "name": "Ліцей №7",
        "rating": 0,
        "reviews": 0,
        "type": "school",
        "weight": 0.1,
        "in_walk_radius": false
      },
      {
        "lat": 48.9213175,
        "lon": 24.7159372,
        "name": "Ліцей №5",
        "rating": 0,
        "reviews": 0,
        "type": "school",
        "weight": 0.1,
        "in_walk_radius": false
      },
      {
        "lat": 48.91990500000001,
        "lon": 24.7181782,
        "name": "Ліцей №11",
        "rating": 0,
        "reviews": 0,
        "type": "school",
        "weight": 0.1,
        "in_walk_radius": false
      },
      {
        "lat": 48.921897,
        "lon": 24.71323899999999,
        "name": "Helen Doron English",
        "rating": 4.8,
        "reviews": 21,
        "type": "school",
        "weight": 1.0,
        "in_walk_radius": true
      },
      {
        "lat": 48.92785999999999,
        "lon": 24.71202439999999,
        "name": "Web-студія. IT-group.",
        "rating": 4.7,
        "reviews": 20,
        "type": "school",
        "weight": 1.0,
        "in_walk_radius": true
      },
      {
        "lat": 48.929478,
        "lon": 24.7028232,
        "name": "City Polyclinic № 2",
        "rating": 2.3,
        "reviews": 87,
        "type": "hospital",
        "weight": 1.0,
        "in_walk_radius": false
      },
      {
        "lat": 48.9214729,
        "lon": 24.7102271,
        "name": "Територія краси ІФ магазин-студія",
        "rating": 4.1,
        "reviews": 74,
        "type": "hospital",
        "weight": 1.0,
        "in_walk_radius": true
      },
      {
        "lat": 48.92683400000001,
        "lon": 24.714005,
        "name": "Asklepiy",
        "rating": 3.7,
        "reviews": 37,
        "type": "hospital",
        "weight": 1.0,
        "in_walk_radius": true
      },
      {
        "lat": 48.92231659999999,
        "lon": 24.7149039,
        "name": "Medhouse",
        "rating": 4.8,
        "reviews": 1509,
        "type": "hospital",
        "weight": 1.0,
        "in_walk_radius": true
      },
      {
        "lat": 48.92473280000001,
        "lon": 24.7165054,
        "name": "Медичний центр \"Оксфорд Медікал Івано-Франківськ\"",
        "rating": 4.1,
        "reviews": 360,
        "type": "hospital",
        "weight": 1.0,
        "in_walk_radius": false
      },
      {
        "lat": 48.9256271,
        "lon": 24.716723,
        "name": "ПРАВЕКС-БАНК, АКБ, ІВАНО-ФРАНКІВСЬКА ФІЛІЯ",
        "rating": 2.3,
        "reviews": 3,
        "type": "bank",
        "weight": 0.319,
        "in_walk_radius": false
      },
      {
        "lat": 48.9256556,
        "lon": 24.7133379,
        "name": "idea Bank",
        "rating": 4.7,
        "reviews": 131,
        "type": "bank",
        "weight": 1.0,
        "in_walk_radius": true
      },
      {
        "lat": 48.921716,
        "lon": 24.7082135,
        "name": "Idea Bank",
        "rating": 4.8,
        "reviews": 254,
        "type": "bank",
        "weight": 1.0,
        "in_walk_radius": true
      },
      {
        "lat": 48.929496,
        "lon": 24.7127458,
        "name": "Kredobank",
        "rating": 3.1,
        "reviews": 29,
        "type": "bank",
        "weight": 1.0,
        "in_walk_radius": false
      },
      {
        "lat": 48.9178422,
        "lon": 24.7201923,
        "name": "Ekspres-Bank",
        "rating": 0,
        "reviews": 0,
        "type": "bank",
        "weight": 0.1,
        "in_walk_radius": false
      },
      {
        "lat": 48.9239347,
        "lon": 24.7101818,
        "name": "Med-Servis",
        "rating": 2.9,
        "reviews": 14,
        "type": "pharmacy",
        "weight": 0.785,
        "in_walk_radius": true
      },
      {
        "lat": 48.9209128,
        "lon": 24.7067445,
        "name": "Аптека оптових цін, Аптека №8",
        "rating": 3.4,
        "reviews": 16,
        "type": "pharmacy",
        "weight": 0.963,
        "in_walk_radius": false
      },
      {
        "lat": 48.9256268,
        "lon": 24.7223483,
        "name": "Med-Servys",
        "rating": 3.4,
        "reviews": 26,
        "type": "pharmacy",
        "weight": 1.0,
        "in_walk_radius": false
      },
      {
        "lat": 48.9182624,
        "lon": 24.7252019,
        "name": "Vetapteka Ta Zoomahazyn \"Zoosvit\"",
        "rating": 4.4,
        "reviews": 80,
        "type": "pharmacy",
        "weight": 1.0,
        "in_walk_radius": false
      },
      {
        "lat": 48.9195769,
        "lon": 24.7129149,
        "name": "Imperial Skin Beauty Medicals",
        "rating": 0,
        "reviews": 0,
        "type": "pharmacy",
        "weight": 0.1,
        "in_walk_radius": false
      }
    ],
    "collected_at": "2026-03-29T17:17:03.528239",
    "population_walk": 11350,
    "population_car": 68955,
    "population_heatmap": [
      {
        "lat": 48.93593,
        "lon": 24.72115,
        "pop": 5625,
        "in_walk": false
      },
      {
        "lat": 48.92803,
        "lon": 24.72295,
        "pop": 5702,
        "in_walk": false
      },
      {
        "lat": 48.92625,
        "lon": 24.70071,
        "pop": 9841,
        "in_walk": false
      },
      {
        "lat": 48.93109,
        "lon": 24.71093,
        "pop": 5423,
        "in_walk": false
      },
      {
        "lat": 48.93415,
        "lon": 24.69891,
        "pop": 4058,
        "in_walk": false
      },
      {
        "lat": 48.91835,
        "lon": 24.70251,
        "pop": 11526,
        "in_walk": false
      },
      {
        "lat": 48.92013,
        "lon": 24.72475,
        "pop": 7035,
        "in_walk": false
      },
      {
        "lat": 48.92319,
        "lon": 24.71273,
        "pop": 11350,
        "in_walk": true
      },
      {
        "lat": 48.91529,
        "lon": 24.71453,
        "pop": 8395,
        "in_walk": false
      }
    ]
  }
}