{
  "_meta": {
    "generated": "2026-04-01T13:59:17.201376",
    "radius_walk": 500,
    "radius_car": 1000
  },
  "Васильків 1": {
    "peak": 35,
    "morning": 21,
    "evening": 29,
    "weekend": 31,
    "walk_radius": 500,
    "car_radius": 1000,
    "walk_places_count": 49,
    "car_places_count": 55,
    "heatmap_points": [
      {
        "lat": 50.175495,
        "lon": 30.3179295,
        "name": "Liberti",
        "rating": 4.3,
        "reviews": 579,
        "type": "shopping_mall",
        "weight": 1.0,
        "in_walk_radius": true
      },
      {
        "lat": 50.1738458,
        "lon": 30.32042700000001,
        "name": "Vasylʹkivkhliboprodukt",
        "rating": 3.7,
        "reviews": 64,
        "type": "shopping_mall",
        "weight": 1.0,
        "in_walk_radius": false
      },
      {
        "lat": 50.1770891,
        "lon": 30.3196385,
        "name": "Safe Sale",
        "rating": 5,
        "reviews": 1,
        "type": "shopping_mall",
        "weight": 0.347,
        "in_walk_radius": false
      },
      {
        "lat": 50.1791436,
        "lon": 30.3128501,
        "name": "магазин ковров",
        "rating": 0,
        "reviews": 0,
        "type": "shopping_mall",
        "weight": 0.1,
        "in_walk_radius": false
      },
      {
        "lat": 50.1732555,
        "lon": 30.3221219,
        "name": "Дім Взуття (Dim Vzuttya)",
        "rating": 4.8,
        "reviews": 5,
        "type": "shopping_mall",
        "weight": 0.86,
        "in_walk_radius": false
      },
      {
        "lat": 50.176239,
        "lon": 30.3161611,
        "name": "Silpo",
        "rating": 4.1,
        "reviews": 2600,
        "type": "supermarket",
        "weight": 1.0,
        "in_walk_radius": true
      },
      {
        "lat": 50.177013,
        "lon": 30.31732,
        "name": "Avrora",
        "rating": 3.4,
        "reviews": 5,
        "type": "supermarket",
        "weight": 0.609,
        "in_walk_radius": true
      },
      {
        "lat": 50.17775710000001,
        "lon": 30.31685449999999,
        "name": "Atb",
        "rating": 3.9,
        "reviews": 1541,
        "type": "supermarket",
        "weight": 1.0,
        "in_walk_radius": true
      },
      {
        "lat": 50.1790258,
        "lon": 30.3130246,
        "name": "Silpo",
        "rating": 4.2,
        "reviews": 228,
        "type": "supermarket",
        "weight": 1.0,
        "in_walk_radius": false
      },
      {
        "lat": 50.1817729,
        "lon": 30.3123281,
        "name": "Eko Market",
        "rating": 3.4,
        "reviews": 1591,
        "type": "supermarket",
        "weight": 1.0,
        "in_walk_radius": false
      },
      {
        "lat": 50.1756682,
        "lon": 30.3157765,
        "name": "Konsul",
        "rating": 4.1,
        "reviews": 74,
        "type": "restaurant",
        "weight": 1.0,
        "in_walk_radius": true
      },
      {
        "lat": 50.1751748,
        "lon": 30.3174796,
        "name": "Pizza-Time",
        "rating": 4,
        "reviews": 767,
        "type": "restaurant",
        "weight": 1.0,
        "in_walk_radius": true
      },
      {
        "lat": 50.1736193,
        "lon": 30.328167,
        "name": "Enohastronom",
        "rating": 3.7,
        "reviews": 99,
        "type": "restaurant",
        "weight": 1.0,
        "in_walk_radius": false
      },
      {
        "lat": 50.1750825,
        "lon": 30.315166,
        "name": "BarДАК",
        "rating": 4.8,
        "reviews": 50,
        "type": "restaurant",
        "weight": 1.0,
        "in_walk_radius": true
      },
      {
        "lat": 50.17556190000001,
        "lon": 30.31541310000001,
        "name": "Osama sushi Васильків Соборна",
        "rating": 4.3,
        "reviews": 116,
        "type": "restaurant",
        "weight": 1.0,
        "in_walk_radius": true
      },
      {
        "lat": 50.1735173,
        "lon": 30.3148278,
        "name": "Okko",
        "rating": 4.4,
        "reviews": 940,
        "type": "cafe",
        "weight": 1.0,
        "in_walk_radius": true
      },
      {
        "lat": 50.1712174,
        "lon": 30.3123562,
        "name": "Чєрдак Loft-cafe",
        "rating": 3.8,
        "reviews": 123,
        "type": "cafe",
        "weight": 1.0,
        "in_walk_radius": true
      },
      {
        "lat": 50.1747829,
        "lon": 30.3147608,
        "name": "Milenium",
        "rating": 4.1,
        "reviews": 28,
        "type": "cafe",
        "weight": 1.0,
        "in_walk_radius": true
      },
      {
        "lat": 50.17475859999999,
        "lon": 30.31561719999999,
        "name": "Prava Kava",
        "rating": 4.8,
        "reviews": 390,
        "type": "cafe",
        "weight": 1.0,
        "in_walk_radius": true
      },
      {
        "lat": 50.1758593,
        "lon": 30.31592720000001,
        "name": "Kav'yarnya",
        "rating": 5,
        "reviews": 3,
        "type": "cafe",
        "weight": 0.693,
        "in_walk_radius": true
      },
      {
        "lat": 50.17526149999999,
        "lon": 30.317722,
        "name": "Vasylkiv",
        "rating": 0,
        "reviews": 0,
        "type": "transit_station",
        "weight": 0.1,
        "in_walk_radius": true
      },
      {
        "lat": 50.17894250000001,
        "lon": 30.3144735,
        "name": "Vasylkiv",
        "rating": 0,
        "reviews": 0,
        "type": "transit_station",
        "weight": 0.1,
        "in_walk_radius": true
      },
      {
        "lat": 50.17533299999999,
        "lon": 30.31774500000001,
        "name": "Vasylkiv (Muzei)",
        "rating": 5,
        "reviews": 1,
        "type": "transit_station",
        "weight": 0.347,
        "in_walk_radius": true
      },
      {
        "lat": 50.175121,
        "lon": 30.317847,
        "name": "Vasylkiv (Muzei)",
        "rating": 5,
        "reviews": 1,
        "type": "transit_station",
        "weight": 0.347,
        "in_walk_radius": true
      },
      {
        "lat": 50.1724755,
        "lon": 30.31906419999999,
        "name": "Vasylkiv-Tsentr",
        "rating": 4.2,
        "reviews": 24,
        "type": "transit_station",
        "weight": 1.0,
        "in_walk_radius": false
      },
      {
        "lat": 50.1770891,
        "lon": 30.3196385,
        "name": "Vasylkiv",
        "rating": 0,
        "reviews": 0,
        "type": "market",
        "weight": 0.1,
        "in_walk_radius": false
      },
      {
        "lat": 50.18036279999999,
        "lon": 30.32040950000001,
        "name": "Ukrainska Pravoslavna Tserkva Antoniya i Feodosiya",
        "rating": 4.6,
        "reviews": 81,
        "type": "market",
        "weight": 1.0,
        "in_walk_radius": false
      },
      {
        "lat": 50.17804100000001,
        "lon": 30.3162695,
        "name": "Fortuna",
        "rating": 4.4,
        "reviews": 19,
        "type": "market",
        "weight": 1.0,
        "in_walk_radius": true
      },
      {
        "lat": 50.1773853,
        "lon": 30.3151178,
        "name": "Mebli-Zamovlennya",
        "rating": 3.6,
        "reviews": 343,
        "type": "market",
        "weight": 1.0,
        "in_walk_radius": true
      },
      {
        "lat": 50.17624480000001,
        "lon": 30.3155844,
        "name": "Fit Curves",
        "rating": 0,
        "reviews": 0,
        "type": "gym",
        "weight": 0.1,
        "in_walk_radius": true
      },
      {
        "lat": 50.1739568,
        "lon": 30.3194474,
        "name": "BODYMOODSTUDIO",
        "rating": 5,
        "reviews": 27,
        "type": "gym",
        "weight": 1.0,
        "in_walk_radius": false
      },
      {
        "lat": 50.1740045,
        "lon": 30.3198113,
        "name": "U-club фітнес студія",
        "rating": 0,
        "reviews": 0,
        "type": "gym",
        "weight": 0.1,
        "in_walk_radius": false
      },
      {
        "lat": 50.1786707,
        "lon": 30.3136778,
        "name": "Тренажерный зал «Olimp Gym»",
        "rating": 4.7,
        "reviews": 104,
        "type": "gym",
        "weight": 1.0,
        "in_walk_radius": true
      },
      {
        "lat": 50.178135,
        "lon": 30.3192497,
        "name": "Dance - Фитнес студия",
        "rating": 4.6,
        "reviews": 14,
        "type": "gym",
        "weight": 1.0,
        "in_walk_radius": false
      },
      {
        "lat": 50.1771925,
        "lon": 30.30790509999999,
        "name": "ЕННКА",
        "rating": 0,
        "reviews": 0,
        "type": "park",
        "weight": 0.1,
        "in_walk_radius": false
      },
      {
        "lat": 50.179084,
        "lon": 30.3212355,
        "name": "Васильківський заклад дошкільної освіти №12 \"Дюймовочка\"",
        "rating": 4,
        "reviews": 1,
        "type": "school",
        "weight": 0.277,
        "in_walk_radius": false
      },
      {
        "lat": 50.1729869,
        "lon": 30.32720759999999,
        "name": "Alphabet school of foreign languages",
        "rating": 5,
        "reviews": 40,
        "type": "school",
        "weight": 1.0,
        "in_walk_radius": false
      },
      {
        "lat": 50.17607040000001,
        "lon": 30.31535450000001,
        "name": "Shkola Usnoho Rakhunku Soroban",
        "rating": 5,
        "reviews": 18,
        "type": "school",
        "weight": 1.0,
        "in_walk_radius": true
      },
      {
        "lat": 50.17683109999999,
        "lon": 30.31611,
        "name": "Vasilkovskaya secondary school number 1",
        "rating": 0,
        "reviews": 0,
        "type": "school",
        "weight": 0.1,
        "in_walk_radius": true
      },
      {
        "lat": 50.1777956,
        "lon": 30.3184743,
        "name": "School №2 (former synagogue)",
        "rating": 0,
        "reviews": 0,
        "type": "school",
        "weight": 0.1,
        "in_walk_radius": false
      },
      {
        "lat": 50.1788982,
        "lon": 30.3153361,
        "name": "Стоматологічна клініка Lime",
        "rating": 4,
        "reviews": 43,
        "type": "hospital",
        "weight": 1.0,
        "in_walk_radius": true
      },
      {
        "lat": 50.1759648,
        "lon": 30.3152572,
        "name": "New Medical",
        "rating": 3.7,
        "reviews": 235,
        "type": "hospital",
        "weight": 1.0,
        "in_walk_radius": true
      },
      {
        "lat": 50.1775993,
        "lon": 30.311703,
        "name": "DECOGLOVES",
        "rating": 0,
        "reviews": 0,
        "type": "hospital",
        "weight": 0.1,
        "in_walk_radius": true
      },
      {
        "lat": 50.1754112,
        "lon": 30.3244396,
        "name": "Pokynuta Likarnya",
        "rating": 0,
        "reviews": 0,
        "type": "hospital",
        "weight": 0.1,
        "in_walk_radius": false
      },
      {
        "lat": 50.1810488,
        "lon": 30.30878159999999,
        "name": "Likap+",
        "rating": 5,
        "reviews": 2,
        "type": "hospital",
        "weight": 0.549,
        "in_walk_radius": false
      },
      {
        "lat": 50.1786511,
        "lon": 30.31247939999999,
        "name": "Raiffeisen Bankk",
        "rating": 4.3,
        "reviews": 36,
        "type": "bank",
        "weight": 1.0,
        "in_walk_radius": true
      },
      {
        "lat": 50.1754906,
        "lon": 30.31796629999999,
        "name": "PrivatBank",
        "rating": 3,
        "reviews": 34,
        "type": "bank",
        "weight": 1.0,
        "in_walk_radius": true
      },
      {
        "lat": 50.1739438,
        "lon": 30.3204964,
        "name": "ПАТ \"КРИСТАЛБАНК\"",
        "rating": 3.7,
        "reviews": 3,
        "type": "bank",
        "weight": 0.513,
        "in_walk_radius": false
      },
      {
        "lat": 50.1784925,
        "lon": 30.31270079999999,
        "name": "Oschadbank",
        "rating": 4.4,
        "reviews": 100,
        "type": "bank",
        "weight": 1.0,
        "in_walk_radius": true
      },
      {
        "lat": 50.17428049999999,
        "lon": 30.3209428,
        "name": "Відділення ПриватБанку",
        "rating": 2.6,
        "reviews": 18,
        "type": "bank",
        "weight": 0.766,
        "in_walk_radius": false
      },
      {
        "lat": 50.17957939999999,
        "lon": 30.3137967,
        "name": "Vitamin Merezha Aptek",
        "rating": 4.1,
        "reviews": 15,
        "type": "pharmacy",
        "weight": 1.0,
        "in_walk_radius": false
      },
      {
        "lat": 50.17625289999999,
        "lon": 30.3163144,
        "name": "Bila Romashka",
        "rating": 4.1,
        "reviews": 14,
        "type": "pharmacy",
        "weight": 1.0,
        "in_walk_radius": true
      },
      {
        "lat": 50.176817,
        "lon": 30.3167848,
        "name": "Аптека «Бажаємо здоров'я»",
        "rating": 0,
        "reviews": 0,
        "type": "pharmacy",
        "weight": 0.1,
        "in_walk_radius": true
      },
      {
        "lat": 50.1776834,
        "lon": 30.3172742,
        "name": "Ощад Аптека",
        "rating": 4.9,
        "reviews": 11,
        "type": "pharmacy",
        "weight": 1.0,
        "in_walk_radius": true
      },
      {
        "lat": 50.178014,
        "lon": 30.316344,
        "name": "Apteka Optovykh Ts",
        "rating": 1,
        "reviews": 3,
        "type": "pharmacy",
        "weight": 0.139,
        "in_walk_radius": true
      }
    ],
    "collected_at": "2026-04-01T13:59:26.410804",
    "population_walk": 1802,
    "population_car": 7220,
    "population_heatmap": [
      {
        "lat": 50.17245,
        "lon": 30.31414,
        "pop": 1802,
        "in_walk": true
      },
      {
        "lat": 50.17603,
        "lon": 30.30228,
        "pop": 1064,
        "in_walk": false
      },
      {
        "lat": 50.17668,
        "lon": 30.32479,
        "pop": 1827,
        "in_walk": false
      },
      {
        "lat": 50.18026,
        "lon": 30.31293,
        "pop": 2527,
        "in_walk": false
      }
    ]
  },
  "Васильків 2": {
    "peak": 35,
    "morning": 21,
    "evening": 29,
    "weekend": 31,
    "walk_radius": 500,
    "car_radius": 1000,
    "walk_places_count": 49,
    "car_places_count": 55,
    "heatmap_points": [
      {
        "lat": 50.175495,
        "lon": 30.3179295,
        "name": "Liberti",
        "rating": 4.3,
        "reviews": 579,
        "type": "shopping_mall",
        "weight": 1.0,
        "in_walk_radius": true
      },
      {
        "lat": 50.1770891,
        "lon": 30.3196385,
        "name": "Safe Sale",
        "rating": 5,
        "reviews": 1,
        "type": "shopping_mall",
        "weight": 0.347,
        "in_walk_radius": true
      },
      {
        "lat": 50.1738458,
        "lon": 30.32042700000001,
        "name": "Vasylʹkivkhliboprodukt",
        "rating": 3.7,
        "reviews": 64,
        "type": "shopping_mall",
        "weight": 1.0,
        "in_walk_radius": true
      },
      {
        "lat": 50.1732555,
        "lon": 30.3221219,
        "name": "Дім Взуття (Dim Vzuttya)",
        "rating": 4.8,
        "reviews": 5,
        "type": "shopping_mall",
        "weight": 0.86,
        "in_walk_radius": false
      },
      {
        "lat": 50.1791436,
        "lon": 30.3128501,
        "name": "магазин ковров",
        "rating": 0,
        "reviews": 0,
        "type": "shopping_mall",
        "weight": 0.1,
        "in_walk_radius": false
      },
      {
        "lat": 50.176239,
        "lon": 30.3161611,
        "name": "Silpo",
        "rating": 4.1,
        "reviews": 2600,
        "type": "supermarket",
        "weight": 1.0,
        "in_walk_radius": true
      },
      {
        "lat": 50.177013,
        "lon": 30.31732,
        "name": "Avrora",
        "rating": 3.4,
        "reviews": 5,
        "type": "supermarket",
        "weight": 0.609,
        "in_walk_radius": true
      },
      {
        "lat": 50.17775710000001,
        "lon": 30.31685449999999,
        "name": "Atb",
        "rating": 3.9,
        "reviews": 1541,
        "type": "supermarket",
        "weight": 1.0,
        "in_walk_radius": true
      },
      {
        "lat": 50.1790258,
        "lon": 30.3130246,
        "name": "Silpo",
        "rating": 4.2,
        "reviews": 228,
        "type": "supermarket",
        "weight": 1.0,
        "in_walk_radius": false
      },
      {
        "lat": 50.17175700000001,
        "lon": 30.32597299999999,
        "name": "Avrora",
        "rating": 2.3,
        "reviews": 3,
        "type": "supermarket",
        "weight": 0.319,
        "in_walk_radius": false
      },
      {
        "lat": 50.1756682,
        "lon": 30.3157765,
        "name": "Konsul",
        "rating": 4.1,
        "reviews": 74,
        "type": "restaurant",
        "weight": 1.0,
        "in_walk_radius": true
      },
      {
        "lat": 50.1751748,
        "lon": 30.3174796,
        "name": "Pizza-Time",
        "rating": 4,
        "reviews": 767,
        "type": "restaurant",
        "weight": 1.0,
        "in_walk_radius": true
      },
      {
        "lat": 50.1736193,
        "lon": 30.328167,
        "name": "Enohastronom",
        "rating": 3.7,
        "reviews": 99,
        "type": "restaurant",
        "weight": 1.0,
        "in_walk_radius": false
      },
      {
        "lat": 50.1761894,
        "lon": 30.3162841,
        "name": "Tomakha",
        "rating": 4.4,
        "reviews": 748,
        "type": "restaurant",
        "weight": 1.0,
        "in_walk_radius": true
      },
      {
        "lat": 50.1756158,
        "lon": 30.3157187,
        "name": "Karetnyy Dvir",
        "rating": 4.2,
        "reviews": 88,
        "type": "restaurant",
        "weight": 1.0,
        "in_walk_radius": true
      },
      {
        "lat": 50.1735173,
        "lon": 30.3148278,
        "name": "Okko",
        "rating": 4.4,
        "reviews": 940,
        "type": "cafe",
        "weight": 1.0,
        "in_walk_radius": true
      },
      {
        "lat": 50.1712174,
        "lon": 30.3123562,
        "name": "Чєрдак Loft-cafe",
        "rating": 3.8,
        "reviews": 123,
        "type": "cafe",
        "weight": 1.0,
        "in_walk_radius": false
      },
      {
        "lat": 50.17554089999999,
        "lon": 30.317728,
        "name": "Bilyy Shokolad",
        "rating": 4.6,
        "reviews": 153,
        "type": "cafe",
        "weight": 1.0,
        "in_walk_radius": true
      },
      {
        "lat": 50.174918,
        "lon": 30.3180576,
        "name": "Дубль Два",
        "rating": 4.7,
        "reviews": 74,
        "type": "cafe",
        "weight": 1.0,
        "in_walk_radius": true
      },
      {
        "lat": 50.1750084,
        "lon": 30.3188173,
        "name": "Jah Kava 13",
        "rating": 4.6,
        "reviews": 34,
        "type": "cafe",
        "weight": 1.0,
        "in_walk_radius": true
      },
      {
        "lat": 50.17526149999999,
        "lon": 30.317722,
        "name": "Vasylkiv",
        "rating": 0,
        "reviews": 0,
        "type": "transit_station",
        "weight": 0.1,
        "in_walk_radius": true
      },
      {
        "lat": 50.17894250000001,
        "lon": 30.3144735,
        "name": "Vasylkiv",
        "rating": 0,
        "reviews": 0,
        "type": "transit_station",
        "weight": 0.1,
        "in_walk_radius": false
      },
      {
        "lat": 50.17533299999999,
        "lon": 30.31774500000001,
        "name": "Vasylkiv (Muzei)",
        "rating": 5,
        "reviews": 1,
        "type": "transit_station",
        "weight": 0.347,
        "in_walk_radius": true
      },
      {
        "lat": 50.175121,
        "lon": 30.317847,
        "name": "Vasylkiv (Muzei)",
        "rating": 5,
        "reviews": 1,
        "type": "transit_station",
        "weight": 0.347,
        "in_walk_radius": true
      },
      {
        "lat": 50.1724755,
        "lon": 30.31906419999999,
        "name": "Vasylkiv-Tsentr",
        "rating": 4.2,
        "reviews": 24,
        "type": "transit_station",
        "weight": 1.0,
        "in_walk_radius": true
      },
      {
        "lat": 50.1770891,
        "lon": 30.3196385,
        "name": "Vasylkiv",
        "rating": 0,
        "reviews": 0,
        "type": "market",
        "weight": 0.1,
        "in_walk_radius": true
      },
      {
        "lat": 50.18036279999999,
        "lon": 30.32040950000001,
        "name": "Ukrainska Pravoslavna Tserkva Antoniya i Feodosiya",
        "rating": 4.6,
        "reviews": 81,
        "type": "market",
        "weight": 1.0,
        "in_walk_radius": false
      },
      {
        "lat": 50.17804100000001,
        "lon": 30.3162695,
        "name": "Fortuna",
        "rating": 4.4,
        "reviews": 19,
        "type": "market",
        "weight": 1.0,
        "in_walk_radius": true
      },
      {
        "lat": 50.1773853,
        "lon": 30.3151178,
        "name": "Mebli-Zamovlennya",
        "rating": 3.6,
        "reviews": 343,
        "type": "market",
        "weight": 1.0,
        "in_walk_radius": true
      },
      {
        "lat": 50.1739568,
        "lon": 30.3194474,
        "name": "BODYMOODSTUDIO",
        "rating": 5,
        "reviews": 27,
        "type": "gym",
        "weight": 1.0,
        "in_walk_radius": true
      },
      {
        "lat": 50.17624480000001,
        "lon": 30.3155844,
        "name": "Fit Curves",
        "rating": 0,
        "reviews": 0,
        "type": "gym",
        "weight": 0.1,
        "in_walk_radius": true
      },
      {
        "lat": 50.1740045,
        "lon": 30.3198113,
        "name": "U-club фітнес студія",
        "rating": 0,
        "reviews": 0,
        "type": "gym",
        "weight": 0.1,
        "in_walk_radius": true
      },
      {
        "lat": 50.178135,
        "lon": 30.3192497,
        "name": "Dance - Фитнес студия",
        "rating": 4.6,
        "reviews": 14,
        "type": "gym",
        "weight": 1.0,
        "in_walk_radius": true
      },
      {
        "lat": 50.1786707,
        "lon": 30.3136778,
        "name": "Тренажерный зал «Olimp Gym»",
        "rating": 4.7,
        "reviews": 104,
        "type": "gym",
        "weight": 1.0,
        "in_walk_radius": false
      },
      {
        "lat": 50.1771925,
        "lon": 30.30790509999999,
        "name": "ЕННКА",
        "rating": 0,
        "reviews": 0,
        "type": "park",
        "weight": 0.1,
        "in_walk_radius": false
      },
      {
        "lat": 50.179084,
        "lon": 30.3212355,
        "name": "Васильківський заклад дошкільної освіти №12 \"Дюймовочка\"",
        "rating": 4,
        "reviews": 1,
        "type": "school",
        "weight": 0.277,
        "in_walk_radius": false
      },
      {
        "lat": 50.1729869,
        "lon": 30.32720759999999,
        "name": "Alphabet school of foreign languages",
        "rating": 5,
        "reviews": 40,
        "type": "school",
        "weight": 1.0,
        "in_walk_radius": false
      },
      {
        "lat": 50.17607040000001,
        "lon": 30.31535450000001,
        "name": "Shkola Usnoho Rakhunku Soroban",
        "rating": 5,
        "reviews": 18,
        "type": "school",
        "weight": 1.0,
        "in_walk_radius": true
      },
      {
        "lat": 50.17683109999999,
        "lon": 30.31611,
        "name": "Vasilkovskaya secondary school number 1",
        "rating": 0,
        "reviews": 0,
        "type": "school",
        "weight": 0.1,
        "in_walk_radius": true
      },
      {
        "lat": 50.1777956,
        "lon": 30.3184743,
        "name": "School №2 (former synagogue)",
        "rating": 0,
        "reviews": 0,
        "type": "school",
        "weight": 0.1,
        "in_walk_radius": true
      },
      {
        "lat": 50.1788982,
        "lon": 30.3153361,
        "name": "Стоматологічна клініка Lime",
        "rating": 4,
        "reviews": 43,
        "type": "hospital",
        "weight": 1.0,
        "in_walk_radius": true
      },
      {
        "lat": 50.1759648,
        "lon": 30.3152572,
        "name": "New Medical",
        "rating": 3.7,
        "reviews": 235,
        "type": "hospital",
        "weight": 1.0,
        "in_walk_radius": true
      },
      {
        "lat": 50.1754112,
        "lon": 30.3244396,
        "name": "Pokynuta Likarnya",
        "rating": 0,
        "reviews": 0,
        "type": "hospital",
        "weight": 0.1,
        "in_walk_radius": false
      },
      {
        "lat": 50.1775993,
        "lon": 30.311703,
        "name": "DECOGLOVES",
        "rating": 0,
        "reviews": 0,
        "type": "hospital",
        "weight": 0.1,
        "in_walk_radius": false
      },
      {
        "lat": 50.1819961,
        "lon": 30.3113671,
        "name": "Нова Медикал",
        "rating": 3.3,
        "reviews": 7,
        "type": "hospital",
        "weight": 0.686,
        "in_walk_radius": false
      },
      {
        "lat": 50.1786511,
        "lon": 30.31247939999999,
        "name": "Raiffeisen Bankk",
        "rating": 4.3,
        "reviews": 36,
        "type": "bank",
        "weight": 1.0,
        "in_walk_radius": false
      },
      {
        "lat": 50.1754906,
        "lon": 30.31796629999999,
        "name": "PrivatBank",
        "rating": 3,
        "reviews": 34,
        "type": "bank",
        "weight": 1.0,
        "in_walk_radius": true
      },
      {
        "lat": 50.1739438,
        "lon": 30.3204964,
        "name": "ПАТ \"КРИСТАЛБАНК\"",
        "rating": 3.7,
        "reviews": 3,
        "type": "bank",
        "weight": 0.513,
        "in_walk_radius": true
      },
      {
        "lat": 50.17428049999999,
        "lon": 30.3209428,
        "name": "Відділення ПриватБанку",
        "rating": 2.6,
        "reviews": 18,
        "type": "bank",
        "weight": 0.766,
        "in_walk_radius": true
      },
      {
        "lat": 50.1784925,
        "lon": 30.31270079999999,
        "name": "Oschadbank",
        "rating": 4.4,
        "reviews": 100,
        "type": "bank",
        "weight": 1.0,
        "in_walk_radius": false
      },
      {
        "lat": 50.17957939999999,
        "lon": 30.3137967,
        "name": "Vitamin Merezha Aptek",
        "rating": 4.1,
        "reviews": 15,
        "type": "pharmacy",
        "weight": 1.0,
        "in_walk_radius": false
      },
      {
        "lat": 50.1706276,
        "lon": 30.3293227,
        "name": "Veterinary Pharmacy",
        "rating": 4.8,
        "reviews": 43,
        "type": "pharmacy",
        "weight": 1.0,
        "in_walk_radius": false
      },
      {
        "lat": 50.17625289999999,
        "lon": 30.3163144,
        "name": "Bila Romashka",
        "rating": 4.1,
        "reviews": 14,
        "type": "pharmacy",
        "weight": 1.0,
        "in_walk_radius": true
      },
      {
        "lat": 50.17666169999999,
        "lon": 30.3195264,
        "name": "Vulytsya Soborna 62",
        "rating": 0,
        "reviews": 0,
        "type": "pharmacy",
        "weight": 0.1,
        "in_walk_radius": true
      },
      {
        "lat": 50.176817,
        "lon": 30.3167848,
        "name": "Аптека «Бажаємо здоров'я»",
        "rating": 0,
        "reviews": 0,
        "type": "pharmacy",
        "weight": 0.1,
        "in_walk_radius": true
      }
    ],
    "collected_at": "2026-04-01T13:59:33.245573",
    "population_walk": 1802,
    "population_car": 7494,
    "population_heatmap": [
      {
        "lat": 50.17245,
        "lon": 30.31414,
        "pop": 1802,
        "in_walk": true
      },
      {
        "lat": 50.17668,
        "lon": 30.32479,
        "pop": 1827,
        "in_walk": false
      },
      {
        "lat": 50.18026,
        "lon": 30.31293,
        "pop": 2527,
        "in_walk": false
      },
      {
        "lat": 50.16887,
        "lon": 30.32599,
        "pop": 1338,
        "in_walk": false
      }
    ]
  }
}