{
  "_meta": {
    "generated": "2026-03-28T18:42:55.033211",
    "radius_walk": 500,
    "radius_car": 1500
  },
  "Радехів 1": {
    "peak": 29,
    "morning": 17,
    "evening": 24,
    "weekend": 26,
    "walk_radius": 500,
    "car_radius": 1500,
    "walk_places_count": 34,
    "car_places_count": 51,
    "heatmap_points": [
      {
        "lat": 50.2842887,
        "lon": 24.6316025,
        "name": "Галант торговий центр, готель — Радехів",
        "rating": 4,
        "reviews": 207,
        "type": "shopping_mall",
        "weight": 1.0,
        "in_walk_radius": false
      },
      {
        "lat": 50.28898239999999,
        "lon": 24.6344665,
        "name": "Dubosad",
        "rating": 4.1,
        "reviews": 8,
        "type": "shopping_mall",
        "weight": 0.901,
        "in_walk_radius": false
      },
      {
        "lat": 50.2934225,
        "lon": 24.63554349999999,
        "name": "Profitsentr",
        "rating": 5,
        "reviews": 4,
        "type": "shopping_mall",
        "weight": 0.805,
        "in_walk_radius": false
      },
      {
        "lat": 50.283345,
        "lon": 24.6394188,
        "name": "Supermarket Yavis",
        "rating": 1,
        "reviews": 1,
        "type": "supermarket",
        "weight": 0.069,
        "in_walk_radius": true
      },
      {
        "lat": 50.2825697,
        "lon": 24.634349,
        "name": "Yavis",
        "rating": 4,
        "reviews": 288,
        "type": "supermarket",
        "weight": 1.0,
        "in_walk_radius": true
      },
      {
        "lat": 50.2837086,
        "lon": 24.6309981,
        "name": "Аврора",
        "rating": 3.8,
        "reviews": 8,
        "type": "supermarket",
        "weight": 0.835,
        "in_walk_radius": false
      },
      {
        "lat": 50.2767,
        "lon": 24.6332,
        "name": "Avrora",
        "rating": 3,
        "reviews": 8,
        "type": "supermarket",
        "weight": 0.659,
        "in_walk_radius": false
      },
      {
        "lat": 50.2844758,
        "lon": 24.6295016,
        "name": "Atb",
        "rating": 4.2,
        "reviews": 221,
        "type": "supermarket",
        "weight": 1.0,
        "in_walk_radius": false
      },
      {
        "lat": 50.28059349999999,
        "lon": 24.6384689,
        "name": "\"express cafe\"",
        "rating": 3.4,
        "reviews": 7,
        "type": "restaurant",
        "weight": 0.707,
        "in_walk_radius": true
      },
      {
        "lat": 50.2808043,
        "lon": 24.6399093,
        "name": "Litnye Kafe",
        "rating": 3.7,
        "reviews": 117,
        "type": "restaurant",
        "weight": 1.0,
        "in_walk_radius": true
      },
      {
        "lat": 50.27903149999999,
        "lon": 24.64113429999999,
        "name": "Pekarnya - Kondytersʹka \"Yuranya\"",
        "rating": 4.7,
        "reviews": 57,
        "type": "restaurant",
        "weight": 1.0,
        "in_walk_radius": true
      },
      {
        "lat": 50.2795849,
        "lon": 24.6439364,
        "name": "Pereveslo",
        "rating": 3.6,
        "reviews": 15,
        "type": "restaurant",
        "weight": 0.998,
        "in_walk_radius": false
      },
      {
        "lat": 50.2837214,
        "lon": 24.6317929,
        "name": "Pereveslo",
        "rating": 3.9,
        "reviews": 16,
        "type": "restaurant",
        "weight": 1.0,
        "in_walk_radius": false
      },
      {
        "lat": 50.2907772,
        "lon": 24.6350277,
        "name": "OKKO",
        "rating": 4.3,
        "reviews": 1500,
        "type": "cafe",
        "weight": 1.0,
        "in_walk_radius": false
      },
      {
        "lat": 50.2810455,
        "lon": 24.6388293,
        "name": "What's up Kebab",
        "rating": 4.1,
        "reviews": 14,
        "type": "cafe",
        "weight": 1.0,
        "in_walk_radius": true
      },
      {
        "lat": 50.2802239,
        "lon": 24.6353337,
        "name": "Stina Imeni Mazyeyki",
        "rating": 0,
        "reviews": 0,
        "type": "cafe",
        "weight": 0.1,
        "in_walk_radius": true
      },
      {
        "lat": 50.27896490000001,
        "lon": 24.6399824,
        "name": "Pitseriya",
        "rating": 3.3,
        "reviews": 75,
        "type": "cafe",
        "weight": 1.0,
        "in_walk_radius": true
      },
      {
        "lat": 50.2794365,
        "lon": 24.6428543,
        "name": "Leoks",
        "rating": 2.8,
        "reviews": 10,
        "type": "cafe",
        "weight": 0.671,
        "in_walk_radius": false
      },
      {
        "lat": 50.28412559999999,
        "lon": 24.6256588,
        "name": "Radekhiv",
        "rating": 3.9,
        "reviews": 7,
        "type": "transit_station",
        "weight": 0.811,
        "in_walk_radius": false
      },
      {
        "lat": 50.283812,
        "lon": 24.631105,
        "name": "Radekhiv Vytkivs'ka Street",
        "rating": 0,
        "reviews": 0,
        "type": "transit_station",
        "weight": 0.1,
        "in_walk_radius": false
      },
      {
        "lat": 50.28380600000001,
        "lon": 24.63070799999999,
        "name": "Radekhiv Bus Station",
        "rating": 2,
        "reviews": 7,
        "type": "transit_station",
        "weight": 0.416,
        "in_walk_radius": false
      },
      {
        "lat": 50.29071,
        "lon": 24.634941,
        "name": "Radekhiv Petrol Station Okko",
        "rating": 0,
        "reviews": 0,
        "type": "transit_station",
        "weight": 0.1,
        "in_walk_radius": false
      },
      {
        "lat": 50.29083,
        "lon": 24.63507,
        "name": "Radekhiv Stoyanivska Street",
        "rating": 0,
        "reviews": 0,
        "type": "transit_station",
        "weight": 0.1,
        "in_walk_radius": false
      },
      {
        "lat": 50.2797291,
        "lon": 24.6369423,
        "name": "Radekhiv",
        "rating": 0,
        "reviews": 0,
        "type": "market",
        "weight": 0.1,
        "in_walk_radius": true
      },
      {
        "lat": 50.2802322,
        "lon": 24.6416813,
        "name": "Radekhiv City Council",
        "rating": 4,
        "reviews": 12,
        "type": "market",
        "weight": 1.0,
        "in_walk_radius": true
      },
      {
        "lat": 50.2766682,
        "lon": 24.6331957,
        "name": "Rukavichka",
        "rating": 3.8,
        "reviews": 595,
        "type": "market",
        "weight": 1.0,
        "in_walk_radius": false
      },
      {
        "lat": 50.2793028,
        "lon": 24.6439085,
        "name": "Rayonne Upravlinnya Yustytsiyi",
        "rating": 2.3,
        "reviews": 3,
        "type": "market",
        "weight": 0.319,
        "in_walk_radius": false
      },
      {
        "lat": 50.27912449999999,
        "lon": 24.6353569,
        "name": "Radekhiv District Court",
        "rating": 3,
        "reviews": 3,
        "type": "market",
        "weight": 0.416,
        "in_walk_radius": true
      },
      {
        "lat": 50.2799135,
        "lon": 24.638429,
        "name": "Sk \"Chempion\"",
        "rating": 4.1,
        "reviews": 14,
        "type": "gym",
        "weight": 1.0,
        "in_walk_radius": true
      },
      {
        "lat": 50.2888047,
        "lon": 24.6356166,
        "name": "master gym fitness club",
        "rating": 4.8,
        "reviews": 32,
        "type": "gym",
        "weight": 1.0,
        "in_walk_radius": false
      },
      {
        "lat": 50.2807362,
        "lon": 24.6400161,
        "name": "City park",
        "rating": 4.1,
        "reviews": 379,
        "type": "park",
        "weight": 1.0,
        "in_walk_radius": true
      },
      {
        "lat": 50.2836918,
        "lon": 24.63450779999999,
        "name": "Park",
        "rating": 0,
        "reviews": 0,
        "type": "park",
        "weight": 0.1,
        "in_walk_radius": true
      },
      {
        "lat": 50.2876408,
        "lon": 24.6329566,
        "name": "Park",
        "rating": 3.8,
        "reviews": 116,
        "type": "park",
        "weight": 1.0,
        "in_walk_radius": false
      },
      {
        "lat": 50.2799692,
        "lon": 24.6351168,
        "name": "Radekhiv secondary school IIIst. №1",
        "rating": 0,
        "reviews": 0,
        "type": "school",
        "weight": 0.1,
        "in_walk_radius": true
      },
      {
        "lat": 50.2812619,
        "lon": 24.6430876,
        "name": "Загальноосвітня школа І, ІІ, ІІІ ступенів №2 м.Радехова Червоноградського району Львівської області",
        "rating": 0,
        "reviews": 0,
        "type": "school",
        "weight": 0.1,
        "in_walk_radius": false
      },
      {
        "lat": 50.27485480000001,
        "lon": 24.6364569,
        "name": "Дитячий дошкільний заклад №3",
        "rating": 5,
        "reviews": 1,
        "type": "school",
        "weight": 0.347,
        "in_walk_radius": false
      },
      {
        "lat": 50.2799747,
        "lon": 24.6366048,
        "name": "Radekhiv central district hospital",
        "rating": 2.5,
        "reviews": 24,
        "type": "hospital",
        "weight": 0.805,
        "in_walk_radius": true
      },
      {
        "lat": 50.2807734,
        "lon": 24.6372539,
        "name": "Poliklinika",
        "rating": 2.4,
        "reviews": 12,
        "type": "hospital",
        "weight": 0.616,
        "in_walk_radius": true
      },
      {
        "lat": 50.28030889999999,
        "lon": 24.6372727,
        "name": "Dytyache Viddilennya Ta Reanimatsiya",
        "rating": 3.5,
        "reviews": 4,
        "type": "hospital",
        "weight": 0.563,
        "in_walk_radius": true
      },
      {
        "lat": 50.2799679,
        "lon": 24.6366262,
        "name": "Likarnyanyy Korpus",
        "rating": 5,
        "reviews": 1,
        "type": "hospital",
        "weight": 0.347,
        "in_walk_radius": true
      },
      {
        "lat": 50.2836918,
        "lon": 24.63450779999999,
        "name": "Лікарня неврологія.",
        "rating": 0,
        "reviews": 0,
        "type": "hospital",
        "weight": 0.1,
        "in_walk_radius": true
      },
      {
        "lat": 50.2796516,
        "lon": 24.640955,
        "name": "Privatbank",
        "rating": 2.8,
        "reviews": 14,
        "type": "bank",
        "weight": 0.758,
        "in_walk_radius": true
      },
      {
        "lat": 50.2761694,
        "lon": 24.6337206,
        "name": "Oschadbank",
        "rating": 4.8,
        "reviews": 29,
        "type": "bank",
        "weight": 1.0,
        "in_walk_radius": false
      },
      {
        "lat": 50.2799199,
        "lon": 24.6438038,
        "name": "Tochka Ekspres Pumb",
        "rating": 0,
        "reviews": 0,
        "type": "bank",
        "weight": 0.1,
        "in_walk_radius": false
      },
      {
        "lat": 50.2755552,
        "lon": 24.6371386,
        "name": "№6332 ОЩАДНИЙ БАНК УКРАЇНИ ПАТ, РАДЕХІВСЬКЕ ВІДДІЛЕННЯ",
        "rating": 1.5,
        "reviews": 2,
        "type": "bank",
        "weight": 0.165,
        "in_walk_radius": false
      },
      {
        "lat": 50.2711214,
        "lon": 24.6250339,
        "name": "Kredobank, Vat, U M. Radekhiv",
        "rating": 3.3,
        "reviews": 15,
        "type": "bank",
        "weight": 0.915,
        "in_walk_radius": false
      },
      {
        "lat": 50.28059349999999,
        "lon": 24.6384689,
        "name": "Apteka Zdorova Rodyna",
        "rating": 1,
        "reviews": 1,
        "type": "pharmacy",
        "weight": 0.069,
        "in_walk_radius": true
      },
      {
        "lat": 50.28038279999999,
        "lon": 24.6380676,
        "name": "Аптека «Подорожник»",
        "rating": 4.7,
        "reviews": 48,
        "type": "pharmacy",
        "weight": 1.0,
        "in_walk_radius": true
      },
      {
        "lat": 50.2800197,
        "lon": 24.6367221,
        "name": "Apteka 3I",
        "rating": 0,
        "reviews": 0,
        "type": "pharmacy",
        "weight": 0.1,
        "in_walk_radius": true
      },
      {
        "lat": 50.2799576,
        "lon": 24.6366906,
        "name": "night drugstore",
        "rating": 3.8,
        "reviews": 11,
        "type": "pharmacy",
        "weight": 0.944,
        "in_walk_radius": true
      },
      {
        "lat": 50.2793439,
        "lon": 24.6393943,
        "name": "Apteka",
        "rating": 5,
        "reviews": 3,
        "type": "pharmacy",
        "weight": 0.693,
        "in_walk_radius": true
      }
    ],
    "collected_at": "2026-03-28T18:43:04.666975"
  },
  "Радехів 2": {
    "peak": 39,
    "morning": 23,
    "evening": 33,
    "weekend": 35,
    "walk_radius": 500,
    "car_radius": 1500,
    "walk_places_count": 15,
    "car_places_count": 44,
    "heatmap_points": [
      {
        "lat": 50.28898239999999,
        "lon": 24.6344665,
        "name": "Dubosad",
        "rating": 4.1,
        "reviews": 8,
        "type": "shopping_mall",
        "weight": 0.901,
        "in_walk_radius": true
      },
      {
        "lat": 50.2934225,
        "lon": 24.63554349999999,
        "name": "Profitsentr",
        "rating": 5,
        "reviews": 4,
        "type": "shopping_mall",
        "weight": 0.805,
        "in_walk_radius": true
      },
      {
        "lat": 50.2842887,
        "lon": 24.6316025,
        "name": "Галант торговий центр, готель — Радехів",
        "rating": 4,
        "reviews": 207,
        "type": "shopping_mall",
        "weight": 1.0,
        "in_walk_radius": false
      },
      {
        "lat": 50.2844758,
        "lon": 24.6295016,
        "name": "Atb",
        "rating": 4.2,
        "reviews": 221,
        "type": "supermarket",
        "weight": 1.0,
        "in_walk_radius": false
      },
      {
        "lat": 50.2837086,
        "lon": 24.6309981,
        "name": "Аврора",
        "rating": 3.8,
        "reviews": 8,
        "type": "supermarket",
        "weight": 0.835,
        "in_walk_radius": false
      },
      {
        "lat": 50.2825697,
        "lon": 24.634349,
        "name": "Yavis",
        "rating": 4,
        "reviews": 288,
        "type": "supermarket",
        "weight": 1.0,
        "in_walk_radius": false
      },
      {
        "lat": 50.283345,
        "lon": 24.6394188,
        "name": "Supermarket Yavis",
        "rating": 1,
        "reviews": 1,
        "type": "supermarket",
        "weight": 0.069,
        "in_walk_radius": false
      },
      {
        "lat": 50.2767,
        "lon": 24.6332,
        "name": "Avrora",
        "rating": 3,
        "reviews": 8,
        "type": "supermarket",
        "weight": 0.659,
        "in_walk_radius": false
      },
      {
        "lat": 50.2926298,
        "lon": 24.6344869,
        "name": "Nasha Kukhovarnya",
        "rating": 4.4,
        "reviews": 68,
        "type": "restaurant",
        "weight": 1.0,
        "in_walk_radius": true
      },
      {
        "lat": 50.2844185,
        "lon": 24.631978,
        "name": "Піцерія в Галанті - Радехів",
        "rating": 3.9,
        "reviews": 27,
        "type": "restaurant",
        "weight": 1.0,
        "in_walk_radius": false
      },
      {
        "lat": 50.2837214,
        "lon": 24.6317929,
        "name": "Pereveslo",
        "rating": 3.9,
        "reviews": 16,
        "type": "restaurant",
        "weight": 1.0,
        "in_walk_radius": false
      },
      {
        "lat": 50.28059349999999,
        "lon": 24.6384689,
        "name": "\"express cafe\"",
        "rating": 3.4,
        "reviews": 7,
        "type": "restaurant",
        "weight": 0.707,
        "in_walk_radius": false
      },
      {
        "lat": 50.2808043,
        "lon": 24.6399093,
        "name": "Litnye Kafe",
        "rating": 3.7,
        "reviews": 117,
        "type": "restaurant",
        "weight": 1.0,
        "in_walk_radius": false
      },
      {
        "lat": 50.2907772,
        "lon": 24.6350277,
        "name": "OKKO",
        "rating": 4.3,
        "reviews": 1500,
        "type": "cafe",
        "weight": 1.0,
        "in_walk_radius": true
      },
      {
        "lat": 50.2907718,
        "lon": 24.6335223,
        "name": "Бістро «Смачна тарілка»",
        "rating": 5,
        "reviews": 3,
        "type": "cafe",
        "weight": 0.693,
        "in_walk_radius": true
      },
      {
        "lat": 50.28671039999999,
        "lon": 24.6313477,
        "name": "Nahaychelli Karamelʹovyy",
        "rating": 0,
        "reviews": 0,
        "type": "cafe",
        "weight": 0.1,
        "in_walk_radius": true
      },
      {
        "lat": 50.28412559999999,
        "lon": 24.6256588,
        "name": "Radekhiv",
        "rating": 3.9,
        "reviews": 7,
        "type": "transit_station",
        "weight": 0.811,
        "in_walk_radius": false
      },
      {
        "lat": 50.29071,
        "lon": 24.634941,
        "name": "Radekhiv Petrol Station Okko",
        "rating": 0,
        "reviews": 0,
        "type": "transit_station",
        "weight": 0.1,
        "in_walk_radius": true
      },
      {
        "lat": 50.29083,
        "lon": 24.63507,
        "name": "Radekhiv Stoyanivska Street",
        "rating": 0,
        "reviews": 0,
        "type": "transit_station",
        "weight": 0.1,
        "in_walk_radius": true
      },
      {
        "lat": 50.283812,
        "lon": 24.631105,
        "name": "Radekhiv Vytkivs'ka Street",
        "rating": 0,
        "reviews": 0,
        "type": "transit_station",
        "weight": 0.1,
        "in_walk_radius": false
      },
      {
        "lat": 50.28380600000001,
        "lon": 24.63070799999999,
        "name": "Radekhiv Bus Station",
        "rating": 2,
        "reviews": 7,
        "type": "transit_station",
        "weight": 0.416,
        "in_walk_radius": false
      },
      {
        "lat": 50.2797291,
        "lon": 24.6369423,
        "name": "Radekhiv",
        "rating": 0,
        "reviews": 0,
        "type": "market",
        "weight": 0.1,
        "in_walk_radius": false
      },
      {
        "lat": 50.2878923,
        "lon": 24.6302958,
        "name": "Tzov \"Vik-2\"",
        "rating": 5,
        "reviews": 4,
        "type": "market",
        "weight": 0.805,
        "in_walk_radius": true
      },
      {
        "lat": 50.2898871,
        "lon": 24.6363543,
        "name": "In Taym",
        "rating": 3.6,
        "reviews": 12,
        "type": "market",
        "weight": 0.923,
        "in_walk_radius": true
      },
      {
        "lat": 50.2916502,
        "lon": 24.6352719,
        "name": "Hospodar",
        "rating": 4.9,
        "reviews": 1338,
        "type": "market",
        "weight": 1.0,
        "in_walk_radius": true
      },
      {
        "lat": 50.2888047,
        "lon": 24.6356166,
        "name": "master gym fitness club",
        "rating": 4.8,
        "reviews": 32,
        "type": "gym",
        "weight": 1.0,
        "in_walk_radius": true
      },
      {
        "lat": 50.2799135,
        "lon": 24.638429,
        "name": "Sk \"Chempion\"",
        "rating": 4.1,
        "reviews": 14,
        "type": "gym",
        "weight": 1.0,
        "in_walk_radius": false
      },
      {
        "lat": 50.2876408,
        "lon": 24.6329566,
        "name": "Park",
        "rating": 3.8,
        "reviews": 116,
        "type": "park",
        "weight": 1.0,
        "in_walk_radius": true
      },
      {
        "lat": 50.2836918,
        "lon": 24.63450779999999,
        "name": "Park",
        "rating": 0,
        "reviews": 0,
        "type": "park",
        "weight": 0.1,
        "in_walk_radius": false
      },
      {
        "lat": 50.2807362,
        "lon": 24.6400161,
        "name": "City park",
        "rating": 4.1,
        "reviews": 379,
        "type": "park",
        "weight": 1.0,
        "in_walk_radius": false
      },
      {
        "lat": 50.2799692,
        "lon": 24.6351168,
        "name": "Radekhiv secondary school IIIst. №1",
        "rating": 0,
        "reviews": 0,
        "type": "school",
        "weight": 0.1,
        "in_walk_radius": false
      },
      {
        "lat": 50.2812619,
        "lon": 24.6430876,
        "name": "Загальноосвітня школа І, ІІ, ІІІ ступенів №2 м.Радехова Червоноградського району Львівської області",
        "rating": 0,
        "reviews": 0,
        "type": "school",
        "weight": 0.1,
        "in_walk_radius": false
      },
      {
        "lat": 50.2799747,
        "lon": 24.6366048,
        "name": "Radekhiv central district hospital",
        "rating": 2.5,
        "reviews": 24,
        "type": "hospital",
        "weight": 0.805,
        "in_walk_radius": false
      },
      {
        "lat": 50.2911167,
        "lon": 24.6330995,
        "name": "Slavinsnska podo",
        "rating": 5,
        "reviews": 26,
        "type": "hospital",
        "weight": 1.0,
        "in_walk_radius": true
      },
      {
        "lat": 50.2836918,
        "lon": 24.63450779999999,
        "name": "Лікарня неврологія.",
        "rating": 0,
        "reviews": 0,
        "type": "hospital",
        "weight": 0.1,
        "in_walk_radius": false
      },
      {
        "lat": 50.2807734,
        "lon": 24.6372539,
        "name": "Poliklinika",
        "rating": 2.4,
        "reviews": 12,
        "type": "hospital",
        "weight": 0.616,
        "in_walk_radius": false
      },
      {
        "lat": 50.28030889999999,
        "lon": 24.6372727,
        "name": "Dytyache Viddilennya Ta Reanimatsiya",
        "rating": 3.5,
        "reviews": 4,
        "type": "hospital",
        "weight": 0.563,
        "in_walk_radius": false
      },
      {
        "lat": 50.2796516,
        "lon": 24.640955,
        "name": "Privatbank",
        "rating": 2.8,
        "reviews": 14,
        "type": "bank",
        "weight": 0.758,
        "in_walk_radius": false
      },
      {
        "lat": 50.2799199,
        "lon": 24.6438038,
        "name": "Tochka Ekspres Pumb",
        "rating": 0,
        "reviews": 0,
        "type": "bank",
        "weight": 0.1,
        "in_walk_radius": false
      },
      {
        "lat": 50.2834612,
        "lon": 24.641029,
        "name": "Veterynarna Apteka",
        "rating": 0,
        "reviews": 0,
        "type": "pharmacy",
        "weight": 0.1,
        "in_walk_radius": false
      },
      {
        "lat": 50.28059349999999,
        "lon": 24.6384689,
        "name": "Apteka Zdorova Rodyna",
        "rating": 1,
        "reviews": 1,
        "type": "pharmacy",
        "weight": 0.069,
        "in_walk_radius": false
      },
      {
        "lat": 50.28038279999999,
        "lon": 24.6380676,
        "name": "Аптека «Подорожник»",
        "rating": 4.7,
        "reviews": 48,
        "type": "pharmacy",
        "weight": 1.0,
        "in_walk_radius": false
      },
      {
        "lat": 50.2800197,
        "lon": 24.6367221,
        "name": "Apteka 3I",
        "rating": 0,
        "reviews": 0,
        "type": "pharmacy",
        "weight": 0.1,
        "in_walk_radius": false
      },
      {
        "lat": 50.2799576,
        "lon": 24.6366906,
        "name": "night drugstore",
        "rating": 3.8,
        "reviews": 11,
        "type": "pharmacy",
        "weight": 0.944,
        "in_walk_radius": false
      }
    ],
    "collected_at": "2026-03-28T18:43:12.530568"
  }
}