{
  "_meta": {
    "generated": "2026-03-28T17:09:32.135999",
    "radius_walk": 500,
    "radius_car": 1500
  },
  "Дубно КІНО": {
    "peak": 33,
    "morning": 19,
    "evening": 28,
    "weekend": 29,
    "walk_radius": 500,
    "car_radius": 1500,
    "walk_places_count": 38,
    "car_places_count": 47,
    "heatmap_points": [
      {
        "lat": 50.40908470000001,
        "lon": 25.7612162,
        "name": "Рондо",
        "rating": 5,
        "reviews": 1,
        "type": "shopping_mall",
        "weight": 0.347,
        "in_walk_radius": true
      },
      {
        "lat": 50.40375820000001,
        "lon": 25.7603084,
        "name": "ТЦ «MAGIC CITY»",
        "rating": 4.5,
        "reviews": 11,
        "type": "shopping_mall",
        "weight": 1.0,
        "in_walk_radius": true
      },
      {
        "lat": 50.398163,
        "lon": 25.7576341,
        "name": "КВІТИ +",
        "rating": 2.3,
        "reviews": 12,
        "type": "shopping_mall",
        "weight": 0.59,
        "in_walk_radius": false
      },
      {
        "lat": 50.407956,
        "lon": 25.7632762,
        "name": "Аврора",
        "rating": 3.8,
        "reviews": 5,
        "type": "supermarket",
        "weight": 0.681,
        "in_walk_radius": true
      },
      {
        "lat": 50.4096604,
        "lon": 25.7603267,
        "name": "Atb",
        "rating": 4.1,
        "reviews": 239,
        "type": "supermarket",
        "weight": 1.0,
        "in_walk_radius": true
      },
      {
        "lat": 50.40379,
        "lon": 25.7602,
        "name": "Аврора",
        "rating": 5,
        "reviews": 1,
        "type": "supermarket",
        "weight": 0.347,
        "in_walk_radius": true
      },
      {
        "lat": 50.40242,
        "lon": 25.759022,
        "name": "Yenot",
        "rating": 4.3,
        "reviews": 6,
        "type": "supermarket",
        "weight": 0.837,
        "in_walk_radius": false
      },
      {
        "lat": 50.4089525,
        "lon": 25.7755967,
        "name": "Prodservis Market",
        "rating": 3.9,
        "reviews": 62,
        "type": "supermarket",
        "weight": 1.0,
        "in_walk_radius": false
      },
      {
        "lat": 50.4079179,
        "lon": 25.7631904,
        "name": "Chempion",
        "rating": 4.1,
        "reviews": 363,
        "type": "restaurant",
        "weight": 1.0,
        "in_walk_radius": true
      },
      {
        "lat": 50.40715699999999,
        "lon": 25.7619245,
        "name": "Pizza Day",
        "rating": 4.2,
        "reviews": 20,
        "type": "restaurant",
        "weight": 1.0,
        "in_walk_radius": true
      },
      {
        "lat": 50.40794829999999,
        "lon": 25.76319459999999,
        "name": "Doner Маркет",
        "rating": 4.3,
        "reviews": 22,
        "type": "restaurant",
        "weight": 1.0,
        "in_walk_radius": true
      },
      {
        "lat": 50.4085191,
        "lon": 25.7615364,
        "name": "Mister Burher",
        "rating": 3.7,
        "reviews": 16,
        "type": "restaurant",
        "weight": 1.0,
        "in_walk_radius": true
      },
      {
        "lat": 50.4094201,
        "lon": 25.7614622,
        "name": "Doner_Kebab",
        "rating": 4.6,
        "reviews": 42,
        "type": "restaurant",
        "weight": 1.0,
        "in_walk_radius": true
      },
      {
        "lat": 50.40795,
        "lon": 25.7634082,
        "name": "Kav'yarnya Samoobsluhovuvannya Hsp",
        "rating": 5,
        "reviews": 1,
        "type": "cafe",
        "weight": 0.347,
        "in_walk_radius": true
      },
      {
        "lat": 50.4076066,
        "lon": 25.7641757,
        "name": "Пивна Гавань",
        "rating": 4.2,
        "reviews": 52,
        "type": "cafe",
        "weight": 1.0,
        "in_walk_radius": true
      },
      {
        "lat": 50.40774,
        "lon": 25.7619844,
        "name": "Chokolatte",
        "rating": 5,
        "reviews": 3,
        "type": "cafe",
        "weight": 0.693,
        "in_walk_radius": true
      },
      {
        "lat": 50.4064397,
        "lon": 25.7603931,
        "name": "Vaza - квіткова кав'ярня",
        "rating": 4.6,
        "reviews": 32,
        "type": "cafe",
        "weight": 1.0,
        "in_walk_radius": true
      },
      {
        "lat": 50.4037582,
        "lon": 25.7603085,
        "name": "Kruasanna",
        "rating": 4.9,
        "reviews": 32,
        "type": "cafe",
        "weight": 1.0,
        "in_walk_radius": true
      },
      {
        "lat": 50.406944,
        "lon": 25.762694,
        "name": "Semydubska St",
        "rating": 0,
        "reviews": 0,
        "type": "transit_station",
        "weight": 0.1,
        "in_walk_radius": true
      },
      {
        "lat": 50.406795,
        "lon": 25.762533,
        "name": "Semydubska St",
        "rating": 0,
        "reviews": 0,
        "type": "transit_station",
        "weight": 0.1,
        "in_walk_radius": true
      },
      {
        "lat": 50.407889,
        "lon": 25.764609,
        "name": "Myrohoshchanska St",
        "rating": 0,
        "reviews": 0,
        "type": "transit_station",
        "weight": 0.1,
        "in_walk_radius": true
      },
      {
        "lat": 50.407827,
        "lon": 25.765327,
        "name": "Myrohoshchanska St",
        "rating": 0,
        "reviews": 0,
        "type": "transit_station",
        "weight": 0.1,
        "in_walk_radius": true
      },
      {
        "lat": 50.408711,
        "lon": 25.761583,
        "name": "On Demand",
        "rating": 0,
        "reviews": 0,
        "type": "transit_station",
        "weight": 0.1,
        "in_walk_radius": true
      },
      {
        "lat": 50.4009139,
        "lon": 25.7590673,
        "name": "Dubno",
        "rating": 0,
        "reviews": 0,
        "type": "market",
        "weight": 0.1,
        "in_walk_radius": false
      },
      {
        "lat": 50.40220619999999,
        "lon": 25.7580158,
        "name": "Ispolin, Lyvarno-Mekhanichnyy Zavod",
        "rating": 2,
        "reviews": 2,
        "type": "market",
        "weight": 0.22,
        "in_walk_radius": false
      },
      {
        "lat": 50.4097346,
        "lon": 25.7604504,
        "name": "Aldeks",
        "rating": 2.7,
        "reviews": 3,
        "type": "market",
        "weight": 0.374,
        "in_walk_radius": true
      },
      {
        "lat": 50.4045558,
        "lon": 25.77519599999999,
        "name": "Ufa-Nova, Pp",
        "rating": 4.2,
        "reviews": 5,
        "type": "market",
        "weight": 0.753,
        "in_walk_radius": false
      },
      {
        "lat": 50.40830769999999,
        "lon": 25.7623523,
        "name": "Oschadbank",
        "rating": 4,
        "reviews": 17,
        "type": "market",
        "weight": 1.0,
        "in_walk_radius": true
      },
      {
        "lat": 50.3962772,
        "lon": 25.764086,
        "name": "Stadion",
        "rating": 0,
        "reviews": 0,
        "type": "gym",
        "weight": 0.1,
        "in_walk_radius": false
      },
      {
        "lat": 50.40650720000001,
        "lon": 25.7650048,
        "name": "Nursery №5 \"Thumbelina\"",
        "rating": 3.3,
        "reviews": 3,
        "type": "school",
        "weight": 0.457,
        "in_walk_radius": true
      },
      {
        "lat": 50.40558040000001,
        "lon": 25.76604709999999,
        "name": "Litsey 8",
        "rating": 0,
        "reviews": 0,
        "type": "school",
        "weight": 0.1,
        "in_walk_radius": true
      },
      {
        "lat": 50.4107728,
        "lon": 25.7630713,
        "name": "Dubensʹkyy Navchalʹno-Vykhovnyy Kompleks Zahalʹnoosvitniy Navchalʹnyy Zaklad - Doshkilʹnyy Navchalʹnyy Zaklad Dubensʹkoyi Misʹkoyi Rady Rivnensʹkoyi Oblasti",
        "rating": 0,
        "reviews": 0,
        "type": "school",
        "weight": 0.1,
        "in_walk_radius": true
      },
      {
        "lat": 50.4080541,
        "lon": 25.7568538,
        "name": "Dubensʹka Spetsialʹna Shkola-Internat",
        "rating": 0,
        "reviews": 0,
        "type": "school",
        "weight": 0.1,
        "in_walk_radius": false
      },
      {
        "lat": 50.4112713,
        "lon": 25.7643986,
        "name": "Nvk \"Dnz-Znz\"",
        "rating": 3.3,
        "reviews": 6,
        "type": "school",
        "weight": 0.642,
        "in_walk_radius": true
      },
      {
        "lat": 50.39631969999999,
        "lon": 25.7588298,
        "name": "Dubno City Polyclinic",
        "rating": 2.5,
        "reviews": 25,
        "type": "hospital",
        "weight": 0.815,
        "in_walk_radius": false
      },
      {
        "lat": 50.407985,
        "lon": 25.76362899999999,
        "name": "BeautyDerm | Центр естетичної медицини, дерматології та косметології | Дубно",
        "rating": 4.5,
        "reviews": 24,
        "type": "hospital",
        "weight": 1.0,
        "in_walk_radius": true
      },
      {
        "lat": 50.4085922,
        "lon": 25.7652473,
        "name": "Візія",
        "rating": 4.8,
        "reviews": 72,
        "type": "hospital",
        "weight": 1.0,
        "in_walk_radius": true
      },
      {
        "lat": 50.39654650000001,
        "lon": 25.7570873,
        "name": "Medychni Dovidky",
        "rating": 0,
        "reviews": 0,
        "type": "hospital",
        "weight": 0.1,
        "in_walk_radius": false
      },
      {
        "lat": 50.3960653,
        "lon": 25.75869519999999,
        "name": "Pulynskiy Tsentr Pervynnoyi Medyko-Sanitarnoyi Dopomohy",
        "rating": 3,
        "reviews": 2,
        "type": "hospital",
        "weight": 0.33,
        "in_walk_radius": false
      },
      {
        "lat": 50.4024318,
        "lon": 25.7589809,
        "name": "Oschadbank",
        "rating": 4,
        "reviews": 4,
        "type": "bank",
        "weight": 0.644,
        "in_walk_radius": false
      },
      {
        "lat": 50.40836979999999,
        "lon": 25.7616986,
        "name": "Cashpoint",
        "rating": 0,
        "reviews": 0,
        "type": "bank",
        "weight": 0.1,
        "in_walk_radius": true
      },
      {
        "lat": 50.4166667,
        "lon": 25.75,
        "name": "Praveks-Bank, Pat Kb, Dubensʹke Viddilennya",
        "rating": 0,
        "reviews": 0,
        "type": "bank",
        "weight": 0.1,
        "in_walk_radius": false
      },
      {
        "lat": 50.40759250000001,
        "lon": 25.7618946,
        "name": "Аптека «БАМ»",
        "rating": 4.1,
        "reviews": 15,
        "type": "pharmacy",
        "weight": 1.0,
        "in_walk_radius": true
      },
      {
        "lat": 50.40837610000001,
        "lon": 25.7616871,
        "name": "Healthy Family",
        "rating": 3,
        "reviews": 9,
        "type": "pharmacy",
        "weight": 0.691,
        "in_walk_radius": true
      },
      {
        "lat": 50.4090307,
        "lon": 25.7618527,
        "name": "Vetapteka",
        "rating": 4.4,
        "reviews": 64,
        "type": "pharmacy",
        "weight": 1.0,
        "in_walk_radius": true
      },
      {
        "lat": 50.409159,
        "lon": 25.761765,
        "name": "Apteka 911",
        "rating": 0,
        "reviews": 0,
        "type": "pharmacy",
        "weight": 0.1,
        "in_walk_radius": true
      },
      {
        "lat": 50.4095451,
        "lon": 25.7609136,
        "name": "Bazhayemo Zdorov'ya",
        "rating": 5,
        "reviews": 2,
        "type": "pharmacy",
        "weight": 0.549,
        "in_walk_radius": true
      }
    ],
    "collected_at": "2026-03-28T17:09:41.981894"
  },
  "Дубно ЛІТАЧОК": {
    "peak": 37,
    "morning": 22,
    "evening": 31,
    "weekend": 33,
    "walk_radius": 500,
    "car_radius": 1500,
    "walk_places_count": 14,
    "car_places_count": 53,
    "heatmap_points": [
      {
        "lat": 50.4291886,
        "lon": 25.7411967,
        "name": "Tts Serpanok",
        "rating": 5,
        "reviews": 27,
        "type": "shopping_mall",
        "weight": 1.0,
        "in_walk_radius": true
      },
      {
        "lat": 50.4193043,
        "lon": 25.7460771,
        "name": "Замковий",
        "rating": 5,
        "reviews": 4,
        "type": "shopping_mall",
        "weight": 0.805,
        "in_walk_radius": false
      },
      {
        "lat": 50.41802000000001,
        "lon": 25.7403738,
        "name": "Sofiya Plaza",
        "rating": 5,
        "reviews": 1,
        "type": "shopping_mall",
        "weight": 0.347,
        "in_walk_radius": false
      },
      {
        "lat": 50.41791060000001,
        "lon": 25.74386100000001,
        "name": "Торгово-офісний центр \"Форум\"",
        "rating": 4.5,
        "reviews": 2,
        "type": "shopping_mall",
        "weight": 0.494,
        "in_walk_radius": false
      },
      {
        "lat": 50.4179875,
        "lon": 25.7451594,
        "name": "SportPlus",
        "rating": 4.8,
        "reviews": 23,
        "type": "shopping_mall",
        "weight": 1.0,
        "in_walk_radius": false
      },
      {
        "lat": 50.4179661,
        "lon": 25.7387969,
        "name": "Supermarket Dubno",
        "rating": 4.3,
        "reviews": 1818,
        "type": "supermarket",
        "weight": 1.0,
        "in_walk_radius": false
      },
      {
        "lat": 50.41777099999999,
        "lon": 25.743343,
        "name": "Аврора",
        "rating": 2.6,
        "reviews": 5,
        "type": "supermarket",
        "weight": 0.466,
        "in_walk_radius": false
      },
      {
        "lat": 50.4177741,
        "lon": 25.7394168,
        "name": "Atb",
        "rating": 4.3,
        "reviews": 277,
        "type": "supermarket",
        "weight": 1.0,
        "in_walk_radius": false
      },
      {
        "lat": 50.41827499999999,
        "lon": 25.749339,
        "name": "Комора",
        "rating": 5,
        "reviews": 3,
        "type": "supermarket",
        "weight": 0.693,
        "in_walk_radius": false
      },
      {
        "lat": 50.4173371,
        "lon": 25.7478364,
        "name": "Продсервіс",
        "rating": 4.4,
        "reviews": 5,
        "type": "supermarket",
        "weight": 0.788,
        "in_walk_radius": false
      },
      {
        "lat": 50.41711160000001,
        "lon": 25.7464225,
        "name": "Hrand",
        "rating": 4.5,
        "reviews": 938,
        "type": "restaurant",
        "weight": 1.0,
        "in_walk_radius": false
      },
      {
        "lat": 50.4291886,
        "lon": 25.7411967,
        "name": "Харчіня «Ситно»",
        "rating": 4.8,
        "reviews": 84,
        "type": "restaurant",
        "weight": 1.0,
        "in_walk_radius": true
      },
      {
        "lat": 50.41928720000001,
        "lon": 25.7448345,
        "name": "Solodkyy Dim",
        "rating": 3.5,
        "reviews": 219,
        "type": "restaurant",
        "weight": 1.0,
        "in_walk_radius": false
      },
      {
        "lat": 50.4190444,
        "lon": 25.7397732,
        "name": "Pab Khmelyar",
        "rating": 4.1,
        "reviews": 236,
        "type": "restaurant",
        "weight": 1.0,
        "in_walk_radius": false
      },
      {
        "lat": 50.4194645,
        "lon": 25.7468861,
        "name": "Antikkhaus",
        "rating": 4.9,
        "reviews": 21,
        "type": "restaurant",
        "weight": 1.0,
        "in_walk_radius": false
      },
      {
        "lat": 50.4195667,
        "lon": 25.7478682,
        "name": "Terracce grill",
        "rating": 4.1,
        "reviews": 31,
        "type": "cafe",
        "weight": 1.0,
        "in_walk_radius": false
      },
      {
        "lat": 50.4286565,
        "lon": 25.74199280000001,
        "name": "Chaplin",
        "rating": 4.6,
        "reviews": 42,
        "type": "cafe",
        "weight": 1.0,
        "in_walk_radius": true
      },
      {
        "lat": 50.4219574,
        "lon": 25.7458468,
        "name": "Diana",
        "rating": 3.5,
        "reviews": 95,
        "type": "cafe",
        "weight": 1.0,
        "in_walk_radius": false
      },
      {
        "lat": 50.421215,
        "lon": 25.7425511,
        "name": "Mister Burher",
        "rating": 0,
        "reviews": 0,
        "type": "cafe",
        "weight": 0.1,
        "in_walk_radius": false
      },
      {
        "lat": 50.428298,
        "lon": 25.74156899999999,
        "name": "Dubno Petrol Station Wog",
        "rating": 0,
        "reviews": 0,
        "type": "transit_station",
        "weight": 0.1,
        "in_walk_radius": true
      },
      {
        "lat": 50.4283364,
        "lon": 25.7414857,
        "name": "Dubno Wog Gas Station",
        "rating": 0,
        "reviews": 0,
        "type": "transit_station",
        "weight": 0.1,
        "in_walk_radius": true
      },
      {
        "lat": 50.42739599999999,
        "lon": 25.742934,
        "name": "Dubno Gas Station ANP",
        "rating": 0,
        "reviews": 0,
        "type": "transit_station",
        "weight": 0.1,
        "in_walk_radius": true
      },
      {
        "lat": 50.42541599999999,
        "lon": 25.741897,
        "name": "Tarasa Shevchenka St",
        "rating": 0,
        "reviews": 0,
        "type": "transit_station",
        "weight": 0.1,
        "in_walk_radius": true
      },
      {
        "lat": 50.422444,
        "lon": 25.743772,
        "name": "Park Tarasa Shevchenka",
        "rating": 4,
        "reviews": 1,
        "type": "transit_station",
        "weight": 0.277,
        "in_walk_radius": false
      },
      {
        "lat": 50.4009139,
        "lon": 25.7590673,
        "name": "Dubno",
        "rating": 0,
        "reviews": 0,
        "type": "market",
        "weight": 0.1,
        "in_walk_radius": false
      },
      {
        "lat": 50.4211188,
        "lon": 25.7403317,
        "name": "New Mail №2",
        "rating": 4.2,
        "reviews": 314,
        "type": "market",
        "weight": 1.0,
        "in_walk_radius": false
      },
      {
        "lat": 50.4209188,
        "lon": 25.7451835,
        "name": "Dubno City Council",
        "rating": 3.9,
        "reviews": 29,
        "type": "market",
        "weight": 1.0,
        "in_walk_radius": false
      },
      {
        "lat": 50.422904,
        "lon": 25.7437354,
        "name": "Dubensʹka Filiya Vyshchoho Navchalʹnoho Zakladu Vidkrytyy Mizhnarodnyy Universyset Rozvytku Lyudyny Ukraine",
        "rating": 4.7,
        "reviews": 15,
        "type": "market",
        "weight": 1.0,
        "in_walk_radius": false
      },
      {
        "lat": 50.4273508,
        "lon": 25.7429297,
        "name": "ANP",
        "rating": 3.6,
        "reviews": 24,
        "type": "market",
        "weight": 1.0,
        "in_walk_radius": true
      },
      {
        "lat": 50.4190283,
        "lon": 25.7359192,
        "name": "Smart Фітнес клуб",
        "rating": 4.7,
        "reviews": 27,
        "type": "gym",
        "weight": 1.0,
        "in_walk_radius": false
      },
      {
        "lat": 50.41833570000001,
        "lon": 25.7493209,
        "name": "Сrystal gym",
        "rating": 4.6,
        "reviews": 15,
        "type": "gym",
        "weight": 1.0,
        "in_walk_radius": false
      },
      {
        "lat": 50.4229056,
        "lon": 25.7424562,
        "name": "Park Imeni Tarasa Shevchenka",
        "rating": 0,
        "reviews": 0,
        "type": "park",
        "weight": 0.1,
        "in_walk_radius": false
      },
      {
        "lat": 50.4234612,
        "lon": 25.748502,
        "name": "Ostrivok",
        "rating": 4.3,
        "reviews": 264,
        "type": "park",
        "weight": 1.0,
        "in_walk_radius": false
      },
      {
        "lat": 50.42139160000001,
        "lon": 25.7448182,
        "name": "Pam'yatnyk Stepanu Banderi",
        "rating": 3.8,
        "reviews": 12,
        "type": "park",
        "weight": 0.975,
        "in_walk_radius": false
      },
      {
        "lat": 50.4203432,
        "lon": 25.7467089,
        "name": "Skver",
        "rating": 0,
        "reviews": 0,
        "type": "park",
        "weight": 0.1,
        "in_walk_radius": false
      },
      {
        "lat": 50.4224487,
        "lon": 25.7406259,
        "name": "Дубенський ліцей № 2",
        "rating": 0,
        "reviews": 0,
        "type": "school",
        "weight": 0.1,
        "in_walk_radius": false
      },
      {
        "lat": 50.4234848,
        "lon": 25.74064439999999,
        "name": "Dubno secondary school art. №1",
        "rating": 0,
        "reviews": 0,
        "type": "school",
        "weight": 0.1,
        "in_walk_radius": true
      },
      {
        "lat": 50.4208734,
        "lon": 25.7422713,
        "name": "Kindergarten #4 \"Sun\"",
        "rating": 5,
        "reviews": 4,
        "type": "school",
        "weight": 0.805,
        "in_walk_radius": false
      },
      {
        "lat": 50.4200101,
        "lon": 25.7401299,
        "name": "Kindergarten №3 \"Bell\"",
        "rating": 5,
        "reviews": 1,
        "type": "school",
        "weight": 0.347,
        "in_walk_radius": false
      },
      {
        "lat": 50.4190283,
        "lon": 25.7359192,
        "name": "Дитяча Школа Розвитку \"Sova\"",
        "rating": 0,
        "reviews": 0,
        "type": "school",
        "weight": 0.1,
        "in_walk_radius": false
      },
      {
        "lat": 50.426372,
        "lon": 25.7417651,
        "name": "Department of Palliative Medicine (Hospice)",
        "rating": 0,
        "reviews": 0,
        "type": "hospital",
        "weight": 0.1,
        "in_walk_radius": true
      },
      {
        "lat": 50.4211658,
        "lon": 25.7433332,
        "name": "Dubensʹka Misʹka Stomatolohichna Poliklinika",
        "rating": 3.8,
        "reviews": 6,
        "type": "hospital",
        "weight": 0.739,
        "in_walk_radius": false
      },
      {
        "lat": 50.4209851,
        "lon": 25.7438446,
        "name": "Stomatolohichnyy Renthen-Kabinet",
        "rating": 0,
        "reviews": 0,
        "type": "hospital",
        "weight": 0.1,
        "in_walk_radius": false
      },
      {
        "lat": 50.41928720000001,
        "lon": 25.7448345,
        "name": "Oschadbank",
        "rating": 4.9,
        "reviews": 40,
        "type": "bank",
        "weight": 1.0,
        "in_walk_radius": false
      },
      {
        "lat": 50.41831730000001,
        "lon": 25.7415985,
        "name": "КРЕДИТМАРКЕТ 851",
        "rating": 0,
        "reviews": 0,
        "type": "bank",
        "weight": 0.1,
        "in_walk_radius": false
      },
      {
        "lat": 50.41790630000001,
        "lon": 25.7424581,
        "name": "Idea Bank",
        "rating": 4.6,
        "reviews": 125,
        "type": "bank",
        "weight": 1.0,
        "in_walk_radius": false
      },
      {
        "lat": 50.41757980000001,
        "lon": 25.74058929999999,
        "name": "Oschadbank",
        "rating": 4.6,
        "reviews": 62,
        "type": "bank",
        "weight": 1.0,
        "in_walk_radius": false
      },
      {
        "lat": 50.4210928,
        "lon": 25.7411074,
        "name": "EuroPortal Словакия",
        "rating": 0,
        "reviews": 0,
        "type": "bank",
        "weight": 0.1,
        "in_walk_radius": false
      },
      {
        "lat": 50.41853340000001,
        "lon": 25.74358969999999,
        "name": "1 Соціальна Аптека",
        "rating": 4.3,
        "reviews": 13,
        "type": "pharmacy",
        "weight": 1.0,
        "in_walk_radius": false
      },
      {
        "lat": 50.4189149,
        "lon": 25.7435964,
        "name": "Аптека «Рівнеліки»",
        "rating": 0,
        "reviews": 0,
        "type": "pharmacy",
        "weight": 0.1,
        "in_walk_radius": false
      },
      {
        "lat": 50.41867939999999,
        "lon": 25.7405892,
        "name": "Veterynarna Apteka, Zoomahazyn",
        "rating": 4.2,
        "reviews": 36,
        "type": "pharmacy",
        "weight": 1.0,
        "in_walk_radius": false
      },
      {
        "lat": 50.4183973,
        "lon": 25.7404899,
        "name": "Мед.техніка «Мед-Абсолют»",
        "rating": 0,
        "reviews": 0,
        "type": "pharmacy",
        "weight": 0.1,
        "in_walk_radius": false
      },
      {
        "lat": 50.41824,
        "lon": 25.74184,
        "name": "Аптека «Бажаємо здоров'я»",
        "rating": 3.3,
        "reviews": 3,
        "type": "pharmacy",
        "weight": 0.457,
        "in_walk_radius": false
      }
    ],
    "collected_at": "2026-03-28T17:09:50.686340"
  }
}