{
  "_meta": {
    "generated": "2026-03-30T13:26:23.895979",
    "radius_walk": 300,
    "radius_car": 1000
  },
  "Дубно кіно": {
    "peak": 34,
    "morning": 20,
    "evening": 28,
    "weekend": 30,
    "walk_radius": 300,
    "car_radius": 1000,
    "walk_places_count": 31,
    "car_places_count": 41,
    "heatmap_points": [
      {
        "lat": 50.40908470000001,
        "lon": 25.7612162,
        "name": "Рондо",
        "rating": 5,
        "reviews": 1,
        "type": "shopping_mall",
        "weight": 0.347,
        "in_walk_radius": true
      },
      {
        "lat": 50.40375820000001,
        "lon": 25.7603084,
        "name": "ТЦ «MAGIC CITY»",
        "rating": 4.5,
        "reviews": 11,
        "type": "shopping_mall",
        "weight": 1.0,
        "in_walk_radius": false
      },
      {
        "lat": 50.407956,
        "lon": 25.7632762,
        "name": "Аврора",
        "rating": 3.8,
        "reviews": 5,
        "type": "supermarket",
        "weight": 0.681,
        "in_walk_radius": true
      },
      {
        "lat": 50.4096604,
        "lon": 25.7603267,
        "name": "Atb",
        "rating": 4.1,
        "reviews": 239,
        "type": "supermarket",
        "weight": 1.0,
        "in_walk_radius": false
      },
      {
        "lat": 50.40379,
        "lon": 25.7602,
        "name": "Аврора",
        "rating": 5,
        "reviews": 1,
        "type": "supermarket",
        "weight": 0.347,
        "in_walk_radius": false
      },
      {
        "lat": 50.40242,
        "lon": 25.759022,
        "name": "Yenot",
        "rating": 4.3,
        "reviews": 6,
        "type": "supermarket",
        "weight": 0.837,
        "in_walk_radius": false
      },
      {
        "lat": 50.4089525,
        "lon": 25.7755967,
        "name": "Prodservis Market",
        "rating": 3.9,
        "reviews": 62,
        "type": "supermarket",
        "weight": 1.0,
        "in_walk_radius": false
      },
      {
        "lat": 50.4079179,
        "lon": 25.7631904,
        "name": "Chempion",
        "rating": 4.1,
        "reviews": 363,
        "type": "restaurant",
        "weight": 1.0,
        "in_walk_radius": true
      },
      {
        "lat": 50.40794829999999,
        "lon": 25.76319459999999,
        "name": "Doner Маркет",
        "rating": 4.3,
        "reviews": 22,
        "type": "restaurant",
        "weight": 1.0,
        "in_walk_radius": true
      },
      {
        "lat": 50.40715699999999,
        "lon": 25.7619245,
        "name": "Pizza Day",
        "rating": 4.2,
        "reviews": 20,
        "type": "restaurant",
        "weight": 1.0,
        "in_walk_radius": true
      },
      {
        "lat": 50.4085191,
        "lon": 25.7615364,
        "name": "Mister Burher",
        "rating": 3.7,
        "reviews": 16,
        "type": "restaurant",
        "weight": 1.0,
        "in_walk_radius": true
      },
      {
        "lat": 50.4094201,
        "lon": 25.7614622,
        "name": "Doner_Kebab",
        "rating": 4.6,
        "reviews": 42,
        "type": "restaurant",
        "weight": 1.0,
        "in_walk_radius": true
      },
      {
        "lat": 50.40795,
        "lon": 25.7634082,
        "name": "Kav'yarnya Samoobsluhovuvannya Hsp",
        "rating": 5,
        "reviews": 1,
        "type": "cafe",
        "weight": 0.347,
        "in_walk_radius": true
      },
      {
        "lat": 50.4076066,
        "lon": 25.7641757,
        "name": "Пивна Гавань",
        "rating": 4.2,
        "reviews": 52,
        "type": "cafe",
        "weight": 1.0,
        "in_walk_radius": true
      },
      {
        "lat": 50.40774,
        "lon": 25.7619844,
        "name": "Chokolatte",
        "rating": 5,
        "reviews": 3,
        "type": "cafe",
        "weight": 0.693,
        "in_walk_radius": true
      },
      {
        "lat": 50.4064397,
        "lon": 25.7603931,
        "name": "Vaza - квіткова кав'ярня",
        "rating": 4.6,
        "reviews": 32,
        "type": "cafe",
        "weight": 1.0,
        "in_walk_radius": false
      },
      {
        "lat": 50.4037582,
        "lon": 25.7603085,
        "name": "Kruasanna",
        "rating": 4.9,
        "reviews": 32,
        "type": "cafe",
        "weight": 1.0,
        "in_walk_radius": false
      },
      {
        "lat": 50.406944,
        "lon": 25.762694,
        "name": "Semydubska St",
        "rating": 0,
        "reviews": 0,
        "type": "transit_station",
        "weight": 0.1,
        "in_walk_radius": true
      },
      {
        "lat": 50.406795,
        "lon": 25.762533,
        "name": "Semydubska St",
        "rating": 0,
        "reviews": 0,
        "type": "transit_station",
        "weight": 0.1,
        "in_walk_radius": true
      },
      {
        "lat": 50.407889,
        "lon": 25.764609,
        "name": "Myrohoshchanska St",
        "rating": 0,
        "reviews": 0,
        "type": "transit_station",
        "weight": 0.1,
        "in_walk_radius": true
      },
      {
        "lat": 50.407827,
        "lon": 25.765327,
        "name": "Myrohoshchanska St",
        "rating": 0,
        "reviews": 0,
        "type": "transit_station",
        "weight": 0.1,
        "in_walk_radius": true
      },
      {
        "lat": 50.408711,
        "lon": 25.761583,
        "name": "On Demand",
        "rating": 0,
        "reviews": 0,
        "type": "transit_station",
        "weight": 0.1,
        "in_walk_radius": true
      },
      {
        "lat": 50.4009139,
        "lon": 25.7590673,
        "name": "Dubno",
        "rating": 0,
        "reviews": 0,
        "type": "market",
        "weight": 0.1,
        "in_walk_radius": false
      },
      {
        "lat": 50.4097346,
        "lon": 25.7604504,
        "name": "Aldeks",
        "rating": 2.7,
        "reviews": 3,
        "type": "market",
        "weight": 0.374,
        "in_walk_radius": false
      },
      {
        "lat": 50.40220619999999,
        "lon": 25.7580158,
        "name": "Ispolin, Lyvarno-Mekhanichnyy Zavod",
        "rating": 2,
        "reviews": 2,
        "type": "market",
        "weight": 0.22,
        "in_walk_radius": false
      },
      {
        "lat": 50.40830769999999,
        "lon": 25.7623523,
        "name": "Oschadbank",
        "rating": 4,
        "reviews": 17,
        "type": "market",
        "weight": 1.0,
        "in_walk_radius": true
      },
      {
        "lat": 50.4064494,
        "lon": 25.761201,
        "name": "Windows \"Corsa\"",
        "rating": 4.8,
        "reviews": 18,
        "type": "market",
        "weight": 1.0,
        "in_walk_radius": true
      },
      {
        "lat": 50.40650720000001,
        "lon": 25.7650048,
        "name": "Nursery №5 \"Thumbelina\"",
        "rating": 3.3,
        "reviews": 3,
        "type": "school",
        "weight": 0.457,
        "in_walk_radius": true
      },
      {
        "lat": 50.40558040000001,
        "lon": 25.76604709999999,
        "name": "Litsey 8",
        "rating": 0,
        "reviews": 0,
        "type": "school",
        "weight": 0.1,
        "in_walk_radius": false
      },
      {
        "lat": 50.4107728,
        "lon": 25.7630713,
        "name": "Dubensʹkyy Navchalʹno-Vykhovnyy Kompleks Zahalʹnoosvitniy Navchalʹnyy Zaklad - Doshkilʹnyy Navchalʹnyy Zaklad Dubensʹkoyi Misʹkoyi Rady Rivnensʹkoyi Oblasti",
        "rating": 0,
        "reviews": 0,
        "type": "school",
        "weight": 0.1,
        "in_walk_radius": false
      },
      {
        "lat": 50.4080541,
        "lon": 25.7568538,
        "name": "Dubensʹka Spetsialʹna Shkola-Internat",
        "rating": 0,
        "reviews": 0,
        "type": "school",
        "weight": 0.1,
        "in_walk_radius": false
      },
      {
        "lat": 50.4112713,
        "lon": 25.7643986,
        "name": "Nvk \"Dnz-Znz\"",
        "rating": 3.3,
        "reviews": 6,
        "type": "school",
        "weight": 0.642,
        "in_walk_radius": false
      },
      {
        "lat": 50.407985,
        "lon": 25.76362899999999,
        "name": "BeautyDerm | Центр естетичної медицини, дерматології та косметології | Дубно",
        "rating": 4.5,
        "reviews": 24,
        "type": "hospital",
        "weight": 1.0,
        "in_walk_radius": true
      },
      {
        "lat": 50.4085922,
        "lon": 25.7652473,
        "name": "Візія",
        "rating": 4.8,
        "reviews": 72,
        "type": "hospital",
        "weight": 1.0,
        "in_walk_radius": true
      },
      {
        "lat": 50.4024318,
        "lon": 25.7589809,
        "name": "Oschadbank",
        "rating": 4,
        "reviews": 4,
        "type": "bank",
        "weight": 0.644,
        "in_walk_radius": false
      },
      {
        "lat": 50.40836979999999,
        "lon": 25.7616986,
        "name": "Cashpoint",
        "rating": 0,
        "reviews": 0,
        "type": "bank",
        "weight": 0.1,
        "in_walk_radius": true
      },
      {
        "lat": 50.40759250000001,
        "lon": 25.7618946,
        "name": "Аптека «БАМ»",
        "rating": 4.1,
        "reviews": 15,
        "type": "pharmacy",
        "weight": 1.0,
        "in_walk_radius": true
      },
      {
        "lat": 50.40837610000001,
        "lon": 25.7616871,
        "name": "Healthy Family",
        "rating": 3,
        "reviews": 9,
        "type": "pharmacy",
        "weight": 0.691,
        "in_walk_radius": true
      },
      {
        "lat": 50.4090307,
        "lon": 25.7618527,
        "name": "Vetapteka",
        "rating": 4.4,
        "reviews": 64,
        "type": "pharmacy",
        "weight": 1.0,
        "in_walk_radius": true
      },
      {
        "lat": 50.409159,
        "lon": 25.761765,
        "name": "Apteka 911",
        "rating": 0,
        "reviews": 0,
        "type": "pharmacy",
        "weight": 0.1,
        "in_walk_radius": true
      },
      {
        "lat": 50.4095451,
        "lon": 25.7609136,
        "name": "Bazhayemo Zdorov'ya",
        "rating": 5,
        "reviews": 2,
        "type": "pharmacy",
        "weight": 0.549,
        "in_walk_radius": false
      }
    ],
    "collected_at": "2026-03-30T13:26:32.109365",
    "population_walk": 3089,
    "population_car": 8350,
    "population_heatmap": [
      {
        "lat": 50.41321,
        "lon": 25.75993,
        "pop": 2423,
        "in_walk": false
      },
      {
        "lat": 50.40234,
        "lon": 25.77386,
        "pop": 946,
        "in_walk": false
      },
      {
        "lat": 50.40545,
        "lon": 25.76165,
        "pop": 3089,
        "in_walk": true
      },
      {
        "lat": 50.41009,
        "lon": 25.77214,
        "pop": 1389,
        "in_walk": false
      },
      {
        "lat": 50.40856,
        "lon": 25.74944,
        "pop": 503,
        "in_walk": false
      }
    ]
  },
  "Дубно епіцентр": {
    "peak": 32,
    "morning": 19,
    "evening": 27,
    "weekend": 28,
    "walk_radius": 300,
    "car_radius": 1000,
    "walk_places_count": 28,
    "car_places_count": 44,
    "heatmap_points": [
      {
        "lat": 50.3932108,
        "lon": 25.7577591,
        "name": "Epitsentr",
        "rating": 4,
        "reviews": 1225,
        "type": "shopping_mall",
        "weight": 1.0,
        "in_walk_radius": true
      },
      {
        "lat": 50.398163,
        "lon": 25.7576341,
        "name": "КВІТИ +",
        "rating": 2.3,
        "reviews": 12,
        "type": "shopping_mall",
        "weight": 0.59,
        "in_walk_radius": false
      },
      {
        "lat": 50.395177,
        "lon": 25.757242,
        "name": "Avrora",
        "rating": 2.9,
        "reviews": 11,
        "type": "supermarket",
        "weight": 0.721,
        "in_walk_radius": true
      },
      {
        "lat": 50.39512999999999,
        "lon": 25.756548,
        "name": "Torba",
        "rating": 4.1,
        "reviews": 25,
        "type": "supermarket",
        "weight": 1.0,
        "in_walk_radius": true
      },
      {
        "lat": 50.3957364,
        "lon": 25.75687229999999,
        "name": "THRASH! ТРАШ Маркет Super",
        "rating": 4.5,
        "reviews": 22,
        "type": "supermarket",
        "weight": 1.0,
        "in_walk_radius": true
      },
      {
        "lat": 50.40242,
        "lon": 25.759022,
        "name": "Yenot",
        "rating": 4.3,
        "reviews": 6,
        "type": "supermarket",
        "weight": 0.837,
        "in_walk_radius": false
      },
      {
        "lat": 50.39471349999999,
        "lon": 25.7559786,
        "name": "Mister Burher",
        "rating": 4.7,
        "reviews": 30,
        "type": "restaurant",
        "weight": 1.0,
        "in_walk_radius": true
      },
      {
        "lat": 50.3946353,
        "lon": 25.7558464,
        "name": "Hrylʹ-Bar \"Mytrofan\"",
        "rating": 4.5,
        "reviews": 135,
        "type": "restaurant",
        "weight": 1.0,
        "in_walk_radius": true
      },
      {
        "lat": 50.3914,
        "lon": 25.7554346,
        "name": "Taras Bulba",
        "rating": 4,
        "reviews": 106,
        "type": "restaurant",
        "weight": 1.0,
        "in_walk_radius": false
      },
      {
        "lat": 50.3907579,
        "lon": 25.75619009999999,
        "name": "Astoriya",
        "rating": 4.2,
        "reviews": 545,
        "type": "restaurant",
        "weight": 1.0,
        "in_walk_radius": false
      },
      {
        "lat": 50.3986832,
        "lon": 25.7575668,
        "name": "Viktoriya",
        "rating": 3.5,
        "reviews": 97,
        "type": "restaurant",
        "weight": 1.0,
        "in_walk_radius": false
      },
      {
        "lat": 50.392366,
        "lon": 25.755566,
        "name": "Okko",
        "rating": 4.4,
        "reviews": 1019,
        "type": "cafe",
        "weight": 1.0,
        "in_walk_radius": true
      },
      {
        "lat": 50.39462880000001,
        "lon": 25.7565504,
        "name": "Meryy Coffee",
        "rating": 4.5,
        "reviews": 18,
        "type": "cafe",
        "weight": 1.0,
        "in_walk_radius": true
      },
      {
        "lat": 50.39471580000001,
        "lon": 25.7559577,
        "name": "#Coffeelike",
        "rating": 4.6,
        "reviews": 46,
        "type": "cafe",
        "weight": 1.0,
        "in_walk_radius": true
      },
      {
        "lat": 50.3956915,
        "lon": 25.7595177,
        "name": "Coffee Brothers",
        "rating": 4.8,
        "reviews": 26,
        "type": "cafe",
        "weight": 1.0,
        "in_walk_radius": true
      },
      {
        "lat": 50.39774300000001,
        "lon": 25.7574416,
        "name": "Dim Kavy",
        "rating": 4.6,
        "reviews": 19,
        "type": "cafe",
        "weight": 1.0,
        "in_walk_radius": false
      },
      {
        "lat": 50.38653000000001,
        "lon": 25.75276,
        "name": "Dubno",
        "rating": 4.2,
        "reviews": 26,
        "type": "transit_station",
        "weight": 1.0,
        "in_walk_radius": false
      },
      {
        "lat": 50.393918,
        "lon": 25.75678,
        "name": "Syr Combinat",
        "rating": 0,
        "reviews": 0,
        "type": "transit_station",
        "weight": 0.1,
        "in_walk_radius": true
      },
      {
        "lat": 50.394499,
        "lon": 25.756636,
        "name": "Syr Combinat",
        "rating": 0,
        "reviews": 0,
        "type": "transit_station",
        "weight": 0.1,
        "in_walk_radius": true
      },
      {
        "lat": 50.391527,
        "lon": 25.755689,
        "name": "Hap",
        "rating": 0,
        "reviews": 0,
        "type": "transit_station",
        "weight": 0.1,
        "in_walk_radius": false
      },
      {
        "lat": 50.390997,
        "lon": 25.755866,
        "name": "Hap",
        "rating": 0,
        "reviews": 0,
        "type": "transit_station",
        "weight": 0.1,
        "in_walk_radius": false
      },
      {
        "lat": 50.4009139,
        "lon": 25.7590673,
        "name": "Dubno",
        "rating": 0,
        "reviews": 0,
        "type": "market",
        "weight": 0.1,
        "in_walk_radius": false
      },
      {
        "lat": 50.39631969999999,
        "lon": 25.7588298,
        "name": "Dubno City Polyclinic",
        "rating": 2.5,
        "reviews": 25,
        "type": "market",
        "weight": 0.815,
        "in_walk_radius": true
      },
      {
        "lat": 50.3920288,
        "lon": 25.7620466,
        "name": "Dubnomoloko",
        "rating": 4.3,
        "reviews": 101,
        "type": "market",
        "weight": 1.0,
        "in_walk_radius": false
      },
      {
        "lat": 50.3973368,
        "lon": 25.7584119,
        "name": "House of Prayer",
        "rating": 4.2,
        "reviews": 46,
        "type": "market",
        "weight": 1.0,
        "in_walk_radius": false
      },
      {
        "lat": 50.396455,
        "lon": 25.762813,
        "name": "Tserkva Voznesinnya Hospodnʹoho",
        "rating": 4.8,
        "reviews": 53,
        "type": "market",
        "weight": 1.0,
        "in_walk_radius": false
      },
      {
        "lat": 50.3920668,
        "lon": 25.7550377,
        "name": "Iron Man",
        "rating": 5,
        "reviews": 2,
        "type": "gym",
        "weight": 0.549,
        "in_walk_radius": false
      },
      {
        "lat": 50.3920668,
        "lon": 25.7550377,
        "name": "VICTORY GYM",
        "rating": 4.7,
        "reviews": 55,
        "type": "gym",
        "weight": 1.0,
        "in_walk_radius": false
      },
      {
        "lat": 50.3962772,
        "lon": 25.764086,
        "name": "Stadion",
        "rating": 0,
        "reviews": 0,
        "type": "gym",
        "weight": 0.1,
        "in_walk_radius": false
      },
      {
        "lat": 50.39336530000001,
        "lon": 25.7544711,
        "name": "Park Afhantsiv",
        "rating": 5,
        "reviews": 1,
        "type": "park",
        "weight": 0.347,
        "in_walk_radius": false
      },
      {
        "lat": 50.39457229999999,
        "lon": 25.7535616,
        "name": "Дубенський лiцей №6",
        "rating": 0,
        "reviews": 0,
        "type": "school",
        "weight": 0.1,
        "in_walk_radius": false
      },
      {
        "lat": 50.3946271,
        "lon": 25.7535366,
        "name": "I-IIIst school. №6",
        "rating": 0,
        "reviews": 0,
        "type": "school",
        "weight": 0.1,
        "in_walk_radius": false
      },
      {
        "lat": 50.3980249,
        "lon": 25.7579445,
        "name": "Zaliznychna",
        "rating": 0,
        "reviews": 0,
        "type": "school",
        "weight": 0.1,
        "in_walk_radius": false
      },
      {
        "lat": 50.3956154,
        "lon": 25.7636348,
        "name": "School №5",
        "rating": 0,
        "reviews": 0,
        "type": "school",
        "weight": 0.1,
        "in_walk_radius": false
      },
      {
        "lat": 50.3982523,
        "lon": 25.75553619999999,
        "name": "Kindergarten №6 \"Golden Key\"",
        "rating": 4.4,
        "reviews": 5,
        "type": "school",
        "weight": 0.788,
        "in_walk_radius": false
      },
      {
        "lat": 50.3960653,
        "lon": 25.75869519999999,
        "name": "Pulynskiy Tsentr Pervynnoyi Medyko-Sanitarnoyi Dopomohy",
        "rating": 3,
        "reviews": 2,
        "type": "hospital",
        "weight": 0.33,
        "in_walk_radius": true
      },
      {
        "lat": 50.39654650000001,
        "lon": 25.7570873,
        "name": "Medychni Dovidky",
        "rating": 0,
        "reviews": 0,
        "type": "hospital",
        "weight": 0.1,
        "in_walk_radius": true
      },
      {
        "lat": 50.3907579,
        "lon": 25.7561902,
        "name": "Ощадбанк",
        "rating": 4,
        "reviews": 2,
        "type": "bank",
        "weight": 0.439,
        "in_walk_radius": false
      },
      {
        "lat": 50.4024318,
        "lon": 25.7589809,
        "name": "Oschadbank",
        "rating": 4,
        "reviews": 4,
        "type": "bank",
        "weight": 0.644,
        "in_walk_radius": false
      },
      {
        "lat": 50.3948334,
        "lon": 25.7570803,
        "name": "Apteka Zdorova Rodyna",
        "rating": 1,
        "reviews": 1,
        "type": "pharmacy",
        "weight": 0.069,
        "in_walk_radius": true
      },
      {
        "lat": 50.3950316,
        "lon": 25.7566185,
        "name": "Apteka 3I",
        "rating": 1.9,
        "reviews": 9,
        "type": "pharmacy",
        "weight": 0.437,
        "in_walk_radius": true
      },
      {
        "lat": 50.39601280000001,
        "lon": 25.7575864,
        "name": "Apteka \"Rivneliky\"",
        "rating": 3.2,
        "reviews": 6,
        "type": "pharmacy",
        "weight": 0.623,
        "in_walk_radius": true
      },
      {
        "lat": 50.3960653,
        "lon": 25.75869519999999,
        "name": "Aptechnyy Punkt 3I",
        "rating": 4.8,
        "reviews": 6,
        "type": "pharmacy",
        "weight": 0.934,
        "in_walk_radius": true
      },
      {
        "lat": 50.39654650000001,
        "lon": 25.7570873,
        "name": "Apteka \"Rivnefarmatsiya\"",
        "rating": 2.7,
        "reviews": 7,
        "type": "pharmacy",
        "weight": 0.561,
        "in_walk_radius": true
      }
    ],
    "collected_at": "2026-03-30T13:26:39.808191",
    "population_walk": 0,
    "population_car": 5486,
    "population_heatmap": [
      {
        "lat": 50.39769,
        "lon": 25.76337,
        "pop": 1045,
        "in_walk": false
      },
      {
        "lat": 50.40081,
        "lon": 25.75116,
        "pop": 1513,
        "in_walk": false
      },
      {
        "lat": 50.38529,
        "lon": 25.7546,
        "pop": 900,
        "in_walk": false
      },
      {
        "lat": 50.38993,
        "lon": 25.76509,
        "pop": 670,
        "in_walk": false
      },
      {
        "lat": 50.39305,
        "lon": 25.75288,
        "pop": 1358,
        "in_walk": false
      }
    ]
  }
}